,Restaurant Name,Cuisines,City,Locality Verbose,Country,Longitude,Latitude,Average Cost for two ($USD),Aggregate rating,Votes,Location
0,Jahanpanah,"NorthIndian,Mughlai",Agra,"Agra Cantt, Agra",India,78.01154444,27.16166111,11.16,3.9,140.0,"AgraCantt,Agra,India"
1,Rangrezz Restaurant,"NorthIndian,Mughlai",Agra,"Agra Cantt, Agra",India,78.03261468071426,27.16669016928572,9.19,3.5,71.0,"AgraCantt,Agra,India"
2,Time2Eat - Mama Chicken,NorthIndian,Agra,"Agra Cantt, Agra",India,78.01160797,27.16083249,6.57,3.6,94.0,"AgraCantt,Agra,India"
3,Chokho Jeeman Marwari Jain Bhojanalya,Rajasthani,Agra,"Civil Lines, Agra",India,77.99809167,27.19592778,5.25,4.0,87.0,"CivilLines,Agra,India"
4,Pinch Of Spice,"NorthIndian,Chinese,Mughlai",Agra,"Civil Lines, Agra",India,78.00755278,27.201725,13.13,4.2,177.0,"CivilLines,Agra,India"
5,MoMo Cafe,"NorthIndian,European",Agra,"Courtyard by Marriott Agra, Tajganj, Agra",India,78.03261468071426,27.16669016928572,26.26,4.0,45.0,"CourtyardbyMarriottAgra,Tajganj,Agra,India"
6,Peshawri - ITC Mughal,"NorthIndian,Mughlai",Agra,"ITC Mughal, Tajganj, Agra",India,78.044095,27.160934,32.83,4.3,133.0,"ITCMughal,Tajganj,Agra,India"
7,Taj Bano - ITC Mughal,Mughlai,Agra,"ITC Mughal, Tajganj, Agra",India,78.044095,27.160934,32.83,4.0,41.0,"ITCMughal,Tajganj,Agra,India"
8,G Thal,"Rajasthani,Gujarati,Mughlai",Agra,"Khandari, Agra",India,78.03261468071426,27.16669016928572,10.51,3.6,59.0,"Khandari,Agra,India"
9,Dawat-e-Nawab - Radisson Blu,"NorthIndian,Mughlai",Agra,"Radisson Blu, Tajganj, Agra",India,78.05704399999998,27.163303000000006,47.28,3.8,46.0,"RadissonBlu,Tajganj,Agra,India"
10,The Latitude - Radisson Blu,"NorthIndian,Chinese,Continental",Agra,"Radisson Blu, Tajganj, Agra",India,78.05704399999998,27.163303000000006,8.19,3.9,103.0,"RadissonBlu,Tajganj,Agra,India"
11,Dasaprakash Restaurant,"SouthIndian,Desserts",Agra,"Rakabganj, Agra",India,78.01505278,27.16510833,7.22,4.1,121.0,"Rakabganj,Agra,India"
12,The Charcoal Chimney,"NorthIndian,Chinese,Continental,Mughlai",Agra,"Tajganj, Agra",India,78.04299,27.159795000000006,14.45,3.4,70.0,"Tajganj,Agra,India"
13,Sheroes Hangout,"Cafe,NorthIndian,Chinese",Agra,"Tajganj, Agra",India,78.040165,27.16185,8.19,4.9,77.0,"Tajganj,Agra,India"
14,Bon Barbecue,"NorthIndian,Chinese,Continental",Agra,"Tajganj, Agra",India,78.03261468071426,27.16669016928572,19.7,3.8,57.0,"Tajganj,Agra,India"
15,Chapter 1 Cafe,"Cafe,Italian,Mexican,NorthIndian,Continental",Agra,"Tajganj, Agra",India,78.03261468071426,27.16669016928572,8.19,3.9,98.0,"Tajganj,Agra,India"
16,Pind Balluchi,"NorthIndian,Mughlai",Agra,"Tajganj, Agra",India,78.04725,27.15777222,11.82,3.7,175.0,"Tajganj,Agra,India"
17,Pizza Hut,"Italian,Pizza",Agra,"Tajganj, Agra",India,78.03471389,27.16169444,9.19,4.4,134.0,"Tajganj,Agra,India"
18,Tea'se Me - Rooftop Tea Boutique,"Chinese,Italian,Continental,NorthIndian",Agra,"Tajganj, Agra",India,78.03261468071426,27.16669016928572,13.13,4.2,166.0,"Tajganj,Agra,India"
19,Thaaliwala,"NorthIndian,FastFood",Agra,"Tajganj, Agra",India,78.04535899999998,27.158822,9.19,4.1,168.0,"Tajganj,Agra,India"
20,650 - The Global Kitchen,"Chinese,Italian,NorthIndian,Mexican,Mediterranean,Thai",Ahmedabad,"Ambavadi, Ahmedabad",India,72.53757409999999,23.01045111,11.82,4.2,1582.0,"Ambavadi,Ahmedabad,India"
21,Patang - The Revolving Restaurant,"Continental,Chinese,NorthIndian",Ahmedabad,"Ashram Road, Ahmedabad",India,72.572009,23.0261651,23.64,3.7,1315.0,"AshramRoad,Ahmedabad,India"
22,Huber & Holly,"IceCream,Desserts,Continental",Ahmedabad,"Bodakdev, Ahmedabad",India,72.5123947,23.0383109,3.94,4.5,217.0,"Bodakdev,Ahmedabad,India"
23,@Mango,"NorthIndian,Continental,Mexican,Italian",Ahmedabad,"Bodakdev, Ahmedabad",India,72.50176440000001,23.0401633,10.51,4.1,769.0,"Bodakdev,Ahmedabad,India"
24,Fozzie's Pizzaiolo,"Pizza,Italian,Beverages,Desserts",Ahmedabad,"Bodakdev, Ahmedabad",India,72.5098065,23.0330688,11.82,4.3,731.0,"Bodakdev,Ahmedabad,India"
25,La Pino'z Pizza,"Pizza,Italian",Ahmedabad,"Bodakdev, Ahmedabad",India,72.5124872,23.0382314,6.57,4.4,113.0,"Bodakdev,Ahmedabad,India"
26,Mocha,"Cafe,Continental,Desserts",Ahmedabad,"Bodakdev, Ahmedabad",India,72.51130699999999,23.0318508,13.13,4.4,944.0,"Bodakdev,Ahmedabad,India"
27,Blue -  Rooftop Cafe Restaurant Bistro,"NorthIndian,Cafe,Italian,Mexican,Continental",Ahmedabad,"C G Road, Ahmedabad",India,72.55703740000001,23.0290619,13.13,3.8,63.0,"CGRoad,Ahmedabad,India"
28,MoMo Cafí© - Courtyard By Marriott,"NorthIndian,SouthIndian,Asian,Continental",Ahmedabad,"Courtyard By Marriott, Satellite, Ahmedabad",India,72.51158149999998,23.027929,18.39,3.6,375.0,"CourtyardByMarriott,Satellite,Ahmedabad,India"
29,Cryo Lab,"Desserts,IceCream",Ahmedabad,"Ellis Bridge, Ahmedabad",India,72.55998429,23.02874796,4.6,4.6,166.0,"EllisBridge,Ahmedabad,India"
30,Swati Snacks,"FastFood,StreetFood,SouthIndian",Ahmedabad,"Ellis Bridge, Ahmedabad",India,72.55903311,23.02443364,5.91,4.4,697.0,"EllisBridge,Ahmedabad,India"
31,Brick Kitchen,"NorthIndian,Chinese,Continental",Ahmedabad,"Ghatlodia, Ahmedabad",India,72.5316389,23.0643038,11.82,4.3,325.0,"Ghatlodia,Ahmedabad,India"
32,Kabir Restaurant,"NorthIndian,Chinese,Continental,Desserts,FastFood,Sandwich",Ahmedabad,"Gurukul, Ahmedabad",India,72.52396490000002,23.04850469,7.88,3.8,432.0,"Gurukul,Ahmedabad,India"
33,Puffizza,"Italian,FastFood",Ahmedabad,"Gurukul, Ahmedabad",India,72.53774978,23.04619268,9.19,4.3,744.0,"Gurukul,Ahmedabad,India"
34,Cafe Alfresco,"Cafe,Beverages,Desserts,Pizza",Ahmedabad,"Navrangpura, Ahmedabad",India,72.5498285,23.0437235,9.19,4.0,404.0,"Navrangpura,Ahmedabad,India"
35,The Cafe Baraco,"Cafe,Italian",Ahmedabad,"Navrangpura, Ahmedabad",India,72.5504755,23.0443367,7.88,4.4,317.0,"Navrangpura,Ahmedabad,India"
36,Nini's Kitchen,"NorthIndian,Continental,Beverages,Italian,Burger,HealthyFood,Mediterranean",Ahmedabad,"Prahlad Nagar, Ahmedabad",India,72.5072645,23.0117723,12.48,4.5,1138.0,"PrahladNagar,Ahmedabad,India"
37,Yanki Sizzlers,"Continental,Italian,Chinese",Ahmedabad,"Thaltej, Ahmedabad",India,72.5181257,23.0534466,15.76,4.1,1041.0,"Thaltej,Ahmedabad,India"
38,The Garden Cafe - The Fern,"NorthIndian,Italian,Asian,SouthIndian",Ahmedabad,"The Fern, Sola, Ahmedabad",India,72.5222172,23.0640914,15.76,4.1,192.0,"TheFern,Sola,Ahmedabad,India"
39,Mazzo,"Cafe,American,Continental,Armenian,FastFood",Ahmedabad,"Vastrapur, Ahmedabad",India,72.5281083,23.0418026,7.22,3.9,166.0,"Vastrapur,Ahmedabad,India"
40,Turquoise Villa,Continental,Ahmedabad,"Vastrapur, Ahmedabad",India,72.54345129999999,23.0285142,15.76,4.0,535.0,"Vastrapur,Ahmedabad,India"
41,Aryan Family's Delight,"NorthIndian,SouthIndian,FastFood",Allahabad,"Civil Lines, Allahabad",India,81.834502,25.454648,6.57,3.4,57.0,"CivilLines,Allahabad,India"
42,Bean Here,"Cafe,FastFood",Allahabad,"Civil Lines, Allahabad",India,81.83316667,25.45343611,4.6,3.3,76.0,"CivilLines,Allahabad,India"
43,Bikanerwala,"NorthIndian,StreetFood,FastFood",Allahabad,"Civil Lines, Allahabad",India,81.832616,25.451517000000006,6.57,3.2,51.0,"CivilLines,Allahabad,India"
44,Dewsis,"NorthIndian,Chinese",Allahabad,"Civil Lines, Allahabad",India,81.83839088066668,25.452494645999998,7.88,3.4,99.0,"CivilLines,Allahabad,India"
45,Friends Forever,"NorthIndian,Chinese",Allahabad,"Civil Lines, Allahabad",India,81.835585,25.457687,7.88,3.4,83.0,"CivilLines,Allahabad,India"
46,Hotel Ravisha Continental,"NorthIndian,SouthIndian,Chinese",Allahabad,"Civil Lines, Allahabad",India,81.83839088066668,25.452494645999998,7.88,3.4,18.0,"CivilLines,Allahabad,India"
47,KFC,"American,FastFood",Allahabad,"Civil Lines, Allahabad",India,81.839744,25.449659,6.57,3.4,58.0,"CivilLines,Allahabad,India"
48,McDonald's,FastFood,Allahabad,"Civil Lines, Allahabad",India,81.83427900000002,25.450329,5.25,3.3,53.0,"CivilLines,Allahabad,India"
49,Pind Balluchi,"NorthIndian,Mughlai",Allahabad,"Civil Lines, Allahabad",India,81.83839088066668,25.452494645999998,10.51,3.2,6.0,"CivilLines,Allahabad,India"
50,Pizza Hut,"Italian,Pizza",Allahabad,"Civil Lines, Allahabad",India,81.83839088066668,25.452494645999998,9.19,3.4,35.0,"CivilLines,Allahabad,India"
51,Subway,"FastFood,American,Salad,HealthyFood",Allahabad,"Civil Lines, Allahabad",India,81.83839088066668,25.452494645999998,5.25,3.4,32.0,"CivilLines,Allahabad,India"
52,Tandoor Restaurant,"NorthIndian,Chinese",Allahabad,"Civil Lines, Allahabad",India,81.860187,25.443994,6.57,3.2,151.0,"CivilLines,Allahabad,India"
53,The BrewMaster,"NorthIndian,Chinese,Italian",Allahabad,"Civil Lines, Allahabad",India,81.83279631,25.45164569,8.19,3.3,49.0,"CivilLines,Allahabad,India"
54,The Tamarind Tree,"SouthIndian,Chinese",Allahabad,"Civil Lines, Allahabad",India,81.834841,25.459775,6.57,3.4,106.0,"CivilLines,Allahabad,India"
55,Cafe El Chico,"Continental,Italian",Allahabad,"Civil Lines, Allahabad",India,81.83616667,25.44987222,13.13,3.6,59.0,"CivilLines,Allahabad,India"
56,Eat On,NorthIndian,Allahabad,"Civil Lines, Allahabad",India,81.834236,25.450377,2.63,3.7,105.0,"CivilLines,Allahabad,India"
57,Hot Stuff,"NorthIndian,FastFood",Allahabad,"Civil Lines, Allahabad",India,81.841889,25.45235,6.57,3.5,105.0,"CivilLines,Allahabad,India"
58,Paradise,"Desserts,FastFood",Allahabad,"Civil Lines, Allahabad",India,81.83168056,25.45031667,6.57,3.6,57.0,"CivilLines,Allahabad,India"
59,Sagar Ratna,"SouthIndian,NorthIndian,Chinese,Continental",Allahabad,"Tagore Town, Allahabad",India,81.85968199999998,25.457116,5.25,3.5,134.0,"TagoreTown,Allahabad,India"
60,Moti Mahal Delux,"Mughlai,NorthIndian,Chinese",Allahabad,"Vinayak City Centre Mall, Civil Lines, Allahabad",India,81.834492,25.454697,10.51,3.3,58.0,"VinayakCityCentreMall,CivilLines,Allahabad,India"
61,Makhan Fish and Chicken Corner,"NorthIndian,Chinese",Amritsar,"Basant Nagar, Amritsar",India,74.884359,31.64362,9.19,3.4,345.0,"BasantNagar,Amritsar,India"
62,Charming Chicken,NorthIndian,Amritsar,"Basant Nagar, Amritsar",India,74.884384,31.644532,3.94,3.9,151.0,"BasantNagar,Amritsar,India"
63,Ahuja Milk Bhandar,Beverages,Amritsar,"Hathi Gate, Amritsar",India,74.87500285588234,31.63730647000001,1.31,4.0,52.0,"HathiGate,Amritsar,India"
64,Crystal Restaurant,"NorthIndian,Mughlai",Amritsar,"INA Colony, Amritsar",India,74.875878,31.635658000000006,10.51,3.4,122.0,"INAColony,Amritsar,India"
65,Brijwasi Chat Bhandar,StreetFood,Amritsar,"INA Colony, Amritsar",India,74.87575556,31.63488333,1.97,3.6,56.0,"INAColony,Amritsar,India"
66,Bubby Fish & Chicken Corner,NorthIndian,Amritsar,"INA Colony, Amritsar",India,74.875828,31.635671,3.94,3.5,91.0,"INAColony,Amritsar,India"
67,Bon Gateau,"Cafe,Bakery,FastFood",Amritsar,"Ranjit Avenue, Amritsar",India,74.87500285588234,31.63730647000001,6.57,3.4,26.0,"RanjitAvenue,Amritsar,India"
68,The Yellow Chilli,"NorthIndian,Mughlai,Chinese",Amritsar,"Ranjit Avenue, Amritsar",India,74.86276111,31.65558889,15.76,3.4,98.0,"RanjitAvenue,Amritsar,India"
69,La Roma Pizzeria,"FastFood,Italian",Amritsar,"Ranjit Avenue, Amritsar",India,74.86299167,31.65044167,5.25,3.5,111.0,"RanjitAvenue,Amritsar,India"
70,Sakhis Watz Kukin,"NorthIndian,Chinese",Amritsar,"Ranjit Avenue, Amritsar",India,74.86491009999997,31.6466891,9.19,3.6,51.0,"RanjitAvenue,Amritsar,India"
71,The Kulcha Land,"NorthIndian,StreetFood",Amritsar,"Ranjit Avenue, Amritsar",India,74.86416667,31.65319167,2.63,3.9,206.0,"RanjitAvenue,Amritsar,India"
72,Shudh Restaurant,"NorthIndian,SouthIndian,Chinese,FastFood",Amritsar,"Town Hall, Amritsar",India,74.87981389,31.62404722,7.88,3.4,44.0,"TownHall,Amritsar,India"
73,Bade Bhai Ka Brothers' Dhaba,"NorthIndian,FastFood",Amritsar,"Town Hall, Amritsar",India,74.87461944,31.62394722,6.57,3.7,94.0,"TownHall,Amritsar,India"
74,Bharawan Da Dhaba,"NorthIndian,FastFood",Amritsar,"Town Hall, Amritsar",India,74.87833333,31.62615278,6.57,3.5,461.0,"TownHall,Amritsar,India"
75,Brothers Dhaba,NorthIndian,Amritsar,"Town Hall, Amritsar",India,74.877666,31.625981,6.57,3.8,276.0,"TownHall,Amritsar,India"
76,Brothers' Amritsari Dhaba,NorthIndian,Amritsar,"Town Hall, Amritsar",India,74.87957778,31.62261111,5.25,3.8,71.0,"TownHall,Amritsar,India"
77,Gurdas Ram Jalebi Wala,Mithai,Amritsar,"Town Hall, Amritsar",India,74.87500285588234,31.63730647000001,1.31,4.1,104.0,"TownHall,Amritsar,India"
78,Kesar Da Dhabha,NorthIndian,Amritsar,"Town Hall, Amritsar",India,74.873005,31.624386,6.57,4.1,878.0,"TownHall,Amritsar,India"
79,Beera Chicken Corner,NorthIndian,Amritsar,"White Avenue, Amritsar",India,74.883997,31.641991,6.57,3.8,192.0,"WhiteAvenue,Amritsar,India"
80,Surjit Food Plaza,NorthIndian,Amritsar,"White Avenue, Amritsar",India,74.877002,31.644818,13.13,3.5,96.0,"WhiteAvenue,Amritsar,India"
81,Kanha Sweets,FastFood,Amritsar,"White Avenue, Amritsar",India,74.87500285588234,31.63730647000001,1.97,4.1,140.0,"WhiteAvenue,Amritsar,India"
82,Kream N Krunch,"NorthIndian,Chinese,Continental,Italian",Aurangabad,"Akashwani, Aurangabad",India,75.34601667,19.87621944,10.51,3.6,240.0,"Akashwani,Aurangabad,India"
83,Balbeer's Kitchen & Bar,"Italian,Continental,Chinese,NorthIndian",Aurangabad,"Chicalthana, Aurangabad",India,75.342275393125,19.876525949375,11.16,3.3,65.0,"Chicalthana,Aurangabad,India"
84,Angeethi Restaurant,"NorthIndian,Chinese",Aurangabad,"CIDCO, Aurangabad",India,75.35394167,19.87473333,7.88,3.3,63.0,"CIDCO,Aurangabad,India"
85,Domino's Pizza,Pizza,Aurangabad,"CIDCO, Aurangabad",India,75.340775,19.87610556,9.19,3.1,19.0,"CIDCO,Aurangabad,India"
86,Hotel Laadli,"NorthIndian,SouthIndian",Aurangabad,"CIDCO, Aurangabad",India,75.3671268,19.8755223,4.6,3.4,46.0,"CIDCO,Aurangabad,India"
87,Indiana Veg Restaurant,"SouthIndian,NorthIndian,Chinese,FastFood",Aurangabad,"CIDCO, Aurangabad",India,75.360232,19.874449,5.91,3.4,75.0,"CIDCO,Aurangabad,India"
88,Madhuban Restaurant - Welcome Hotel Rama International,"NorthIndian,Chinese,Continental,Italian,Mexican",Aurangabad,"CIDCO, Aurangabad",India,75.35888800000002,19.875908,23.64,3.4,94.0,"CIDCO,Aurangabad,India"
89,Mauj Restaurant,"Italian,FastFood,NorthIndian,Chinese",Aurangabad,"CIDCO, Aurangabad",India,75.36479167,19.87642778,6.57,3.3,47.0,"CIDCO,Aurangabad,India"
90,Naivedya,NorthIndian,Aurangabad,"CIDCO, Aurangabad",India,75.3684187,19.874103,6.57,3.4,71.0,"CIDCO,Aurangabad,India"
91,d' Curry House,"Continental,Chinese,Biryani,NorthIndian",Aurangabad,"Hotel Green Olive, Nirala Bazar, Aurangabad",India,75.316722,19.875337,13.13,3.6,73.0,"HotelGreenOlive,NiralaBazar,Aurangabad,India"
92,Mokoholic Juice Bar,"Juices,Desserts",Aurangabad,"Mondha, Aurangabad",India,75.342275393125,19.876525949375,3.94,3.5,21.0,"Mondha,Aurangabad,India"
93,Ashoka's Veg Restaurant,"SouthIndian,Chinese,NorthIndian",Aurangabad,"Nirala Bazar, Aurangabad",India,75.32340278,19.87963056,5.25,3.3,46.0,"NiralaBazar,Aurangabad,India"
94,Kareem's Fine Dining,"Mughlai,Biryani",Aurangabad,"Nirala Bazar, Aurangabad",India,75.32350278,19.88025556,9.19,3.3,45.0,"NiralaBazar,Aurangabad,India"
95,That Baat,Maharashtrian,Aurangabad,"Nirala Bazar, Aurangabad",India,75.322405,19.875016,5.91,3.4,34.0,"NiralaBazar,Aurangabad,India"
96,Bhoj Restaurant,NorthIndian,Aurangabad,"Nirala Bazar, Aurangabad",India,75.317475,19.87802778,5.91,3.7,89.0,"NiralaBazar,Aurangabad,India"
97,Downside Up,"Cafe,Mughlai,NorthIndian",Aurangabad,"Nyay Nagar, Aurangabad",India,75.342275393125,19.876525949375,5.25,3.2,8.0,"NyayNagar,Aurangabad,India"
98,Kareem's Kabab & Biryani,Mughlai,Aurangabad,"Prozone Mall, Chicalthana, Aurangabad",India,75.37235278,19.87699444,8.54,3.4,39.0,"ProzoneMall,Chicalthana,Aurangabad,India"
99,Great Sagar Restaurant,"NorthIndian,Mughlai",Aurangabad,"Shahgunj, Aurangabad",India,75.321461,19.888716,7.88,3.3,74.0,"Shahgunj,Aurangabad,India"
100,Kailash Restaurant,"NorthIndian,Chinese,SouthIndian,FastFood",Aurangabad,"Usmanpura, Aurangabad",India,75.31889444,19.86696944,5.91,3.3,76.0,"Usmanpura,Aurangabad,India"
101,Yalla Yalla,"NorthIndian,Hyderabadi",Aurangabad,"Usmanpura, Aurangabad",India,75.342275393125,19.876525949375,6.57,3.3,71.0,"Usmanpura,Aurangabad,India"
102,Sultans of Spice,"NorthIndian,Mughlai",Bangalore,"BluPetal Hotel, Koramangala, Bangalore",India,77.61542793,12.93328392,17.07,4.1,2416.0,"BluPetalHotel,Koramangala,Bangalore,India"
103,The Fatty Bao - Asian Gastro Bar,Asian,Bangalore,"Indiranagar, Bangalore",India,77.64539558,12.97022064,31.52,4.7,2369.0,"Indiranagar,Bangalore,India"
104,Toit,"Italian,American,Pizza",Bangalore,"Indiranagar, Bangalore",India,77.64070876,12.9791658,26.26,4.8,10934.0,"Indiranagar,Bangalore,India"
105,Three Dots & A Dash,"European,Continental",Bangalore,"Indiranagar, Bangalore",India,77.64048882,12.98041024,17.07,3.9,1354.0,"Indiranagar,Bangalore,India"
106,Bombay Brasserie,ModernIndian,Bangalore,"Indiranagar, Bangalore",India,77.645748,12.970324,19.7,4.2,231.0,"Indiranagar,Bangalore,India"
107,Glen's Bakehouse,"Bakery,Desserts,Cafe",Bangalore,"Indiranagar, Bangalore",India,77.64062494,12.97909556,10.51,4.0,3533.0,"Indiranagar,Bangalore,India"
108,Onesta,"Pizza,Cafe,Italian",Bangalore,"Indiranagar, Bangalore",India,77.64368467,12.97845292,7.88,4.3,1413.0,"Indiranagar,Bangalore,India"
109,Onesta,"Pizza,Cafe,Italian",Bangalore,"JP Nagar, Bangalore",India,77.59679094,12.90622878,7.88,4.6,781.0,"JPNagar,Bangalore,India"
110,ECHOES Koramangala,"Continental,American,Italian,NorthIndian,Chinese,Cafe",Bangalore,"Koramangala 5th Block, Bangalore",India,77.615797,12.934179,12.48,4.7,276.0,"Koramangala5thBlock,Bangalore,India"
111,Truffles,"American,Burger,Cafe",Bangalore,"Koramangala 5th Block, Bangalore",India,77.61429269,12.93329764,10.51,4.7,9667.0,"Koramangala5thBlock,Bangalore,India"
112,The Black Pearl,"NorthIndian,European,Mediterranean",Bangalore,"Koramangala 5th Block, Bangalore",India,77.61615515,12.93436454,18.39,4.1,5385.0,"Koramangala5thBlock,Bangalore,India"
113,Eat Street,"NorthIndian,Chinese,Italian,StreetFood,Desserts",Bangalore,"Koramangala 6th Block, Bangalore",India,77.625999,12.939496,5.25,4.3,753.0,"Koramangala6thBlock,Bangalore,India"
114,Koramangala Social,"Continental,American",Bangalore,"Koramangala 7th Block, Bangalore",India,77.61413042,12.93566181,19.7,4.5,1288.0,"Koramangala7thBlock,Bangalore,India"
115,AB's - Absolute Barbecues,"European,Mediterranean,NorthIndian",Bangalore,"Marathahalli, Bangalore",India,77.6993861,12.94993396,18.39,4.6,6907.0,"Marathahalli,Bangalore,India"
116,Flechazo,"Asian,Mediterranean,NorthIndian",Bangalore,"Marathahalli, Bangalore",India,77.696664,12.97537691,15.76,4.4,983.0,"Marathahalli,Bangalore,India"
117,Onesta,"Pizza,Cafe,Italian",Bangalore,"New BEL Road, Bangalore",India,77.57099670000002,13.0291977,7.88,4.6,627.0,"NewBELRoad,Bangalore,India"
118,Communiti,Continental,Bangalore,"Residency Road, Bangalore",India,77.60817859,12.97253153,15.76,4.2,334.0,"ResidencyRoad,Bangalore,India"
119,Big Brewsky,"FingerFood,NorthIndian,Italian,Continental,Thai,SouthIndian",Bangalore,"Sarjapur Road, Bangalore",India,77.68323686,12.91304096,23.64,4.5,5705.0,"SarjapurRoad,Bangalore,India"
120,Hoot,"Continental,Italian,NorthIndian",Bangalore,"Sarjapur Road, Bangalore",India,77.6784,12.914264,18.39,3.9,405.0,"SarjapurRoad,Bangalore,India"
121,Farzi Cafe,ModernIndian,Bangalore,"UB City, Bangalore",India,77.5960137,12.9721612,19.7,4.4,754.0,"UBCity,Bangalore,India"
122,Black N White Cafe,"Cafe,Chinese,NorthIndian",Bhopal,"Arera Colony, Bhopal",India,77.419399,23.211529,2.63,3.3,51.0,"AreraColony,Bhopal,India"
123,Maybe There,Cafe,Bhopal,"Arera Colony, Bhopal",India,77.41666849714284,23.229103905,7.88,3.4,63.0,"AreraColony,Bhopal,India"
124,Sagar Gaire Fast Food,FastFood,Bhopal,"Arera Colony, Bhopal",India,77.435361,23.214294,3.28,4.9,427.0,"AreraColony,Bhopal,India"
125,The Kasbah,"NorthIndian,Chinese",Bhopal,"Arera Colony, Bhopal",India,77.41722744,23.18499152,9.19,3.9,126.0,"AreraColony,Bhopal,India"
126,Bake N Shake,FastFood,Bhopal,"Arera Colony, Bhopal",India,77.434976,23.214459,6.57,4.2,223.0,"AreraColony,Bhopal,India"
127,10 Downing Street,"NorthIndian,Chinese",Bhopal,"DB City, Maharana Pratap Nagar, Bhopal",India,77.429989,23.232357,13.13,4.0,257.0,"DBCity,MaharanaPratapNagar,Bhopal,India"
128,Chi Kitchen,Chinese,Bhopal,"DB City, Maharana Pratap Nagar, Bhopal",India,77.41666849714284,23.229103905,13.13,4.0,103.0,"DBCity,MaharanaPratapNagar,Bhopal,India"
129,Pizza Hut,Pizza,Bhopal,"DB City, Maharana Pratap Nagar, Bhopal",India,77.429845,23.232537,8.54,4.1,118.0,"DBCity,MaharanaPratapNagar,Bhopal,India"
130,Kafe Kulture,"Cafe,FastFood",Bhopal,"Gulmohar Colony, Bhopal",India,77.41666849714284,23.229103905,7.88,3.8,98.0,"GulmoharColony,Bhopal,India"
131,Violet Hour,Bakery,Bhopal,"Kohefiza, Bhopal",India,77.37960509999998,23.26626099,6.57,3.8,33.0,"Kohefiza,Bhopal,India"
132,Bapu Ki Kutia,"NorthIndian,Chinese,SouthIndian,FastFood",Bhopal,"Maharana Pratap Nagar, Bhopal",India,77.433571,23.233219,7.22,3.5,175.0,"MaharanaPratapNagar,Bhopal,India"
133,Da pizzeria,"Pizza,Italian,FastFood",Bhopal,"Maharana Pratap Nagar, Bhopal",India,77.41666849714284,23.229103905,6.57,3.6,111.0,"MaharanaPratapNagar,Bhopal,India"
134,Papa Mexicano,"FastFood,Mexican,TexMex",Bhopal,"Maharana Pratap Nagar, Bhopal",India,77.43702042,23.23079116,4.6,3.6,20.0,"MaharanaPratapNagar,Bhopal,India"
135,Bake N Shake,FastFood,Bhopal,"Maharana Pratap Nagar, Bhopal",India,77.41666849714284,23.229103905,6.57,4.1,103.0,"MaharanaPratapNagar,Bhopal,India"
136,Manohar Dairy And Restaurant,"NorthIndian,SouthIndian,StreetFood,Bakery",Bhopal,"Maharana Pratap Nagar, Bhopal",India,77.434007,23.234249,5.25,4.4,243.0,"MaharanaPratapNagar,Bhopal,India"
137,Manohar Dairy And Restaurant,"NorthIndian,SouthIndian,StreetFood,Bakery",Bhopal,"Peer Gate Area, Bhopal",India,77.408236,23.264015,5.25,4.1,238.0,"PeerGateArea,Bhopal,India"
138,Kebabsville - Sayaji Hotel,NorthIndian,Bhopal,"Sayaji Hotel, Bhopal",India,77.373573,23.218998000000006,23.64,4.3,128.0,"SayajiHotel,Bhopal,India"
139,Indian Coffee House,SouthIndian,Bhopal,"TT Nagar, Bhopal",India,77.401663,23.234631,6.57,3.9,161.0,"TTNagar,Bhopal,India"
140,The Urban Socialite,"Italian,Mexican,Chinese",Bhopal,"TT Nagar, Bhopal",India,77.41666849714284,23.229103905,11.82,3.8,79.0,"TTNagar,Bhopal,India"
141,Bake N Shake,FastFood,Bhopal,"TT Nagar, Bhopal",India,77.398886,23.235123,6.57,4.3,120.0,"TTNagar,Bhopal,India"
142,Tyre Patty,Cafe,Bhubaneshwar,"BMC Bhawani Mall, Sahid Nagar, Bhubaneshwar",India,85.82558810411764,20.324314812352945,6.57,3.9,289.0,"BMCBhawaniMall,SahidNagar,Bhubaneshwar,India"
143,Silver Streak,Chinese,Bhubaneshwar,"BMC Bhawani Mall, Sahid Nagar, Bhubaneshwar",India,85.846838,20.286333,7.22,4.1,379.0,"BMCBhawaniMall,SahidNagar,Bhubaneshwar,India"
144,Barbeque Nation,"Mediterranean,Asian,Continental,NorthIndian,Arabian",Bhubaneshwar,"Chandrasekharpur, Bhubaneshwar",India,85.82558810411764,20.324314812352945,15.76,4.6,154.0,"Chandrasekharpur,Bhubaneshwar,India"
145,Central Perk 7,"Cafe,CharcoalGrill,Steak",Bhubaneshwar,"Chandrasekharpur, Bhubaneshwar",India,85.81781287,20.32553933,7.88,4.5,145.0,"Chandrasekharpur,Bhubaneshwar,India"
146,The Chicken Dinesty,"FastFood,NorthIndian,Chinese",Bhubaneshwar,"Chandrasekharpur, Bhubaneshwar",India,85.81856667,20.32634444,6.57,3.9,247.0,"Chandrasekharpur,Bhubaneshwar,India"
147,Taste Of China,Chinese,Bhubaneshwar,"Chandrasekharpur, Bhubaneshwar",India,85.82558810411764,20.324314812352945,6.57,4.0,145.0,"Chandrasekharpur,Bhubaneshwar,India"
148,Michael's Kitchen,"NorthIndian,Asian,European",Bhubaneshwar,"Gajapati Nagar, Bhubaneshwar",India,85.83394811,20.31149633,11.16,3.7,118.0,"GajapatiNagar,Bhubaneshwar,India"
149,Mamma Mia - Mayfair Lagoon,"Cafe,Italian,Mexican,Bakery",Bhubaneshwar,"Mayfair Lagoon, Jayadev Vihar, Bhubaneshwar",India,85.81917800000002,20.301785,18.39,4.1,256.0,"MayfairLagoon,JayadevVihar,Bhubaneshwar,India"
150,99 North Restaurant,"NorthIndian,Chinese",Bhubaneshwar,"Patia, Bhubaneshwar",India,85.80823611,20.34306944,5.91,3.6,173.0,"Patia,Bhubaneshwar,India"
151,Adda,"NorthIndian,Chinese,Mexican,Beverages",Bhubaneshwar,"Patia, Bhubaneshwar",India,85.82272222,20.353675,7.88,3.8,424.0,"Patia,Bhubaneshwar,India"
152,Chill Ummm,"Chinese,NorthIndian,Cafe",Bhubaneshwar,"Patia, Bhubaneshwar",India,85.825257,20.35324774,5.91,3.7,338.0,"Patia,Bhubaneshwar,India"
153,Lal Qila,"Mughlai,Chinese,NorthIndian",Bhubaneshwar,"Patia, Bhubaneshwar",India,85.82685,20.35299167,6.57,3.7,228.0,"Patia,Bhubaneshwar,India"
154,Richard's Kitchen & Coffee Bar,"Cafe,Chinese,FastFood,Seafood",Bhubaneshwar,"Patia, Bhubaneshwar",India,85.82599327,20.35343289,5.91,3.8,253.0,"Patia,Bhubaneshwar,India"
155,Aangan Horizon,"NorthIndian,Chinese,Continental",Bhubaneshwar,"Patia, Bhubaneshwar",India,85.82289287,20.34347604,11.82,4.0,90.0,"Patia,Bhubaneshwar,India"
156,Brewberrys The Coffee Bar,Cafe,Bhubaneshwar,"Patia, Bhubaneshwar",India,85.81112333,20.34314407,5.25,4.0,197.0,"Patia,Bhubaneshwar,India"
157,Chai Break,"Italian,Cafe,Chinese,Continental",Bhubaneshwar,"Patia, Bhubaneshwar",India,85.82558810411764,20.324314812352945,10.51,4.3,69.0,"Patia,Bhubaneshwar,India"
158,JUGAAD JN.,"NorthIndian,Rajasthani",Bhubaneshwar,"Patia, Bhubaneshwar",India,85.82225987,20.35348061,3.94,4.1,199.0,"Patia,Bhubaneshwar,India"
159,Cha cTea,"Cafe,Tea",Bhubaneshwar,"Sahid Nagar, Bhubaneshwar",India,85.84295925,20.29322917,6.57,3.8,56.0,"SahidNagar,Bhubaneshwar,India"
160,Food Fever,"Chinese,NorthIndian",Bhubaneshwar,"Sahid Nagar, Bhubaneshwar",India,85.84516996,20.29575519,11.82,4.2,49.0,"SahidNagar,Bhubaneshwar,India"
161,Mainland China,Chinese,Bhubaneshwar,"The Crown, Nayapalli, Bhubaneshwar",India,85.818494,20.292363,19.7,4.3,345.0,"TheCrown,Nayapalli,Bhubaneshwar,India"
162,Eram Rooftop,"Asian,Continental",Bhubaneshwar,"Unit 4, Bhubaneshwar",India,85.82669624,20.28398889,5.25,3.5,89.0,"Unit4,Bhubaneshwar,India"
163,The Night Factory,"NorthIndian,Chinese,Continental,Pizza",Chandigarh,"Chandigarh Industrial Area, Chandigarh",India,76.801234,30.71005476,11.16,3.7,665.0,"ChandigarhIndustrialArea,Chandigarh,India"
164,Brooklyn Central,"American,Cafe",Chandigarh,"Elante Mall, Chandigarh Industrial Area, Chandigarh",India,76.8009555,30.7050693,21.01,4.2,676.0,"ElanteMall,ChandigarhIndustrialArea,Chandigarh,India"
165,Chili's,"Mexican,American,Italian",Chandigarh,"Elante Mall, Chandigarh Industrial Area, Chandigarh",India,76.8007752,30.7056682,18.39,4.3,970.0,"ElanteMall,ChandigarhIndustrialArea,Chandigarh,India"
166,Kylin Experience,"Japanese,Chinese,Thai,Malaysian,Burmese,Asian",Chandigarh,"Elante Mall, Chandigarh Industrial Area, Chandigarh",India,76.80064,30.7056102,21.01,4.1,300.0,"ElanteMall,ChandigarhIndustrialArea,Chandigarh,India"
167,Mocha,"Continental,Italian,Thai,FingerFood",Chandigarh,"Elante Mall, Chandigarh Industrial Area, Chandigarh",India,76.8008653,30.705148200000004,18.39,4.0,428.0,"ElanteMall,ChandigarhIndustrialArea,Chandigarh,India"
168,Pirates of Grill,"NorthIndian,Continental,Asian",Chandigarh,"Elante Mall, Chandigarh Industrial Area, Chandigarh",India,76.8009555,30.705775,15.76,4.0,1022.0,"ElanteMall,ChandigarhIndustrialArea,Chandigarh,India"
169,Barbeque Nation,"NorthIndian,Chinese",Chandigarh,"Sector 26, Chandigarh",India,76.8051917,30.7257045,17.07,4.5,1450.0,"Sector26,Chandigarh,India"
170,TGI Friday's,"American,TexMex",Chandigarh,"Sector 26, Chandigarh",India,76.80636340000002,30.724943100000004,23.64,4.3,228.0,"Sector26,Chandigarh,India"
171,Pal Dhaba,NorthIndian,Chandigarh,"Sector 28, Chandigarh",India,76.801316,30.719484100000006,9.19,3.8,982.0,"Sector28,Chandigarh,India"
172,Midnight Chef,"NorthIndian,Chinese,Continental,Italian,Burger",Chandigarh,"Sector 35, Chandigarh",India,76.76560555,30.72476574,13.13,3.4,502.0,"Sector35,Chandigarh,India"
173,Nik Baker's,"Bakery,Desserts,Cafe",Chandigarh,"Sector 35, Chandigarh",India,76.76055595,30.72152328,8.54,4.1,698.0,"Sector35,Chandigarh,India"
174,OvenFresh,"Cafe,Bakery",Chandigarh,"Sector 35, Chandigarh",India,76.76061059999998,30.7216086,8.54,4.1,397.0,"Sector35,Chandigarh,India"
175,Super Donuts,"Burger,FastFood,Desserts,Beverages",Chandigarh,"Sector 35, Chandigarh",India,76.76028337,30.72137975,5.91,4.0,265.0,"Sector35,Chandigarh,India"
176,Taco Bell,"Mexican,FastFood",Chandigarh,"Sector 35, Chandigarh",India,76.75984483,30.72114167,7.88,4.2,252.0,"Sector35,Chandigarh,India"
177,Karim's,"Mughlai,NorthIndian",Chandigarh,"Sector 7, Chandigarh",India,76.8009793,30.730618100000004,10.51,3.3,86.0,"Sector7,Chandigarh,India"
178,Virgin Courtyard,Italian,Chandigarh,"Sector 7, Chandigarh",India,76.7976205,30.7334795,28.89,4.4,817.0,"Sector7,Chandigarh,India"
179,Burgrill,"Burger,FastFood",Chandigarh,"Sector 8, Chandigarh",India,76.79789090000001,30.740827000000003,6.57,4.5,249.0,"Sector8,Chandigarh,India"
180,Uncle Jack's,"Desserts,American",Chandigarh,"Sector 8, Chandigarh",India,76.79721479999998,30.7408896,7.88,4.0,356.0,"Sector8,Chandigarh,India"
181,That Madras Place,"European,Italian,Desserts",Chennai,"Adyar, Chennai",India,80.250744,13.0058006,10.51,4.2,1810.0,"Adyar,Chennai,India"
182,Haunted,"NorthIndian,Chinese,Arabian",Chennai,"Anna Nagar East, Chennai",India,80.2206723,13.0864385,10.51,3.8,519.0,"AnnaNagarEast,Chennai,India"
183,Pantry d'or,"Continental,Cafe,Italian,Desserts",Chennai,"Anna Nagar East, Chennai",India,80.2191037,13.0918088,9.85,4.4,1504.0,"AnnaNagarEast,Chennai,India"
184,Palmshore,"NorthIndian,Mughlai,Chinese,SouthIndian",Chennai,"Ashok Nagar, Chennai",India,80.20881157,13.02977985,11.16,4.2,841.0,"AshokNagar,Chennai,India"
185,Chili's,"Mexican,American,TexMex,Burger",Chennai,"Express Avenue Mall,  Royapettah, Chennai",India,80.264151,13.058616,22.33,4.8,1262.0,"ExpressAvenueMall,Royapettah,Chennai,India"
186,Writer's Cafe,"Cafe,European",Chennai,"Gopalapuram, Chennai",India,80.25722075,13.05434714,5.91,4.2,191.0,"Gopalapuram,Chennai,India"
187,Fusilli Reasons,Italian,Chennai,"Kilpauk, Chennai",India,80.24851944,13.08187778,4.6,4.6,1510.0,"Kilpauk,Chennai,India"
188,Ciclo Cafe,"Cafe,Continental",Chennai,"Kotturpuram, Chennai",India,80.24243889,13.02239444,14.45,4.1,1004.0,"Kotturpuram,Chennai,India"
189,Kaidi Kitchen,"Italian,Mexican,Chinese,Thai,NorthIndian",Chennai,"Mylapore, Chennai",India,80.26146999999997,13.044694,19.7,4.0,1820.0,"Mylapore,Chennai,India"
190,Bombay Brasserie,NorthIndian,Chennai,"Nungambakkam, Chennai",India,80.25186500000002,13.066762,15.76,4.6,1753.0,"Nungambakkam,Chennai,India"
191,Maplai,"SouthIndian,Chettinad",Chennai,"Nungambakkam, Chennai",India,80.23644167,13.06418056,13.13,4.2,1714.0,"Nungambakkam,Chennai,India"
192,Paradise,"Biryani,NorthIndian",Chennai,"Perungudi, Chennai",India,80.24998214,12.97279291,11.82,3.8,1317.0,"Perungudi,Chennai,India"
193,L'amandier,"European,Cafe,Italian",Chennai,"RA Puram, Chennai",India,80.25479067,13.02701773,15.76,4.3,1607.0,"RAPuram,Chennai,India"
194,Palmshore,"NorthIndian,Mughlai,Chinese,SouthIndian",Chennai,"Ramapuram, Chennai",India,80.17456822,13.02627908,11.16,4.4,645.0,"Ramapuram,Chennai,India"
195,Palmshore,"NorthIndian,Mughlai,Chinese,SouthIndian",Chennai,"Santhome, Chennai",India,80.2752348,13.02628637,11.16,4.3,742.0,"Santhome,Chennai,India"
196,Basil With A Twist,"Continental,Cafe,Spanish,Italian,European,Greek,Mediterranean",Chennai,"T. Nagar, Chennai",India,80.24226844,13.04964535,19.7,4.5,1210.0,"T.Nagar,Chennai,India"
197,Barbeque Nation,"NorthIndian,Continental",Chennai,"T. Nagar, Chennai",India,80.23311,13.045478999999998,26.26,4.4,3848.0,"T.Nagar,Chennai,India"
198,AB's - Absolute Barbecues,"NorthIndian,European,Mediterranean",Chennai,"Velachery, Chennai",India,80.23159799999998,12.981615,21.01,4.9,859.0,"Velachery,Chennai,India"
199,Coal Barbecues,"NorthIndian,Mediterranean,Asian,Arabian",Chennai,"Velachery, Chennai",India,80.21811381,12.98604688,18.39,4.6,1267.0,"Velachery,Chennai,India"
200,Pind,"NorthIndian,Chinese",Chennai,"Velachery, Chennai",India,80.221898,12.975996,11.82,4.0,2272.0,"Velachery,Chennai,India"
201,Kuchi n Kream,"Cafe,Continental,FastFood",Coimbatore,"Gandhipuram, Coimbatore",India,76.9720757,11.01629845,10.51,4.6,202.0,"Gandhipuram,Coimbatore,India"
202,Haribhavanam Hotel,"SouthIndian,Chettinad,NorthIndian",Coimbatore,"Peelamedu, Coimbatore",India,76.995667,11.022477,7.88,3.9,318.0,"Peelamedu,Coimbatore,India"
203,Kites Cafe,Cafe,Coimbatore,"Peelamedu, Coimbatore",India,77.015393,11.025083,5.25,3.8,124.0,"Peelamedu,Coimbatore,India"
204,Zucca Pizzeria,Pizza,Coimbatore,"Peelamedu, Coimbatore",India,77.00700302,11.02483917,7.88,3.5,274.0,"Peelamedu,Coimbatore,India"
205,Burger Ka Baap,FastFood,Coimbatore,"Peelamedu, Coimbatore",India,76.99959444,11.02216944,6.57,4.3,147.0,"Peelamedu,Coimbatore,India"
206,The Cascade Restaurant,Chinese,Coimbatore,"Peelamedu, Coimbatore",India,76.99501667,11.02127778,15.76,4.1,243.0,"Peelamedu,Coimbatore,India"
207,24 Plus Cafe & Restaurant,"Continental,FastFood,Desserts,Indian",Coimbatore,"Podanur, Coimbatore",India,76.971082,10.96185,5.91,3.8,24.0,"Podanur,Coimbatore,India"
208,Valarmathi Kongunaatu Samayal,"SouthIndian,Biryani",Coimbatore,"Race Course, Coimbatore",India,76.976268,11.001852,4.6,4.5,380.0,"RaceCourse,Coimbatore,India"
209,Bird On Tree,"Continental,Chinese,Thai,Malaysian,NorthIndian",Coimbatore,"Race Course, Coimbatore",India,76.98431119,11.00863836,15.76,3.8,221.0,"RaceCourse,Coimbatore,India"
210,Tim's Bistro,"NorthIndian,Continental",Coimbatore,"Race Course, Coimbatore",India,76.9754397,11.0030085,9.19,3.9,85.0,"RaceCourse,Coimbatore,India"
211,Batlivala & Khanabhoy,"Parsi,NorthIndian",Coimbatore,"Race Course, Coimbatore",India,76.98624135,11.00175265,15.76,4.2,40.0,"RaceCourse,Coimbatore,India"
212,Cafe Totaram,"Cafe,FastFood",Coimbatore,"Race Course, Coimbatore",India,76.98187642,11.00076241,7.88,4.0,132.0,"RaceCourse,Coimbatore,India"
213,Cream Centre,"NorthIndian,Chinese,Italian,Mexican",Coimbatore,"Race Course, Coimbatore",India,76.97649444,11.00366944,13.13,4.0,203.0,"RaceCourse,Coimbatore,India"
214,On The Go,"Italian,NorthIndian,Desserts",Coimbatore,"Race Course, Coimbatore",India,76.975525,11.00368056,19.7,4.0,215.0,"RaceCourse,Coimbatore,India"
215,Sree Annapoorna,"SouthIndian,NorthIndian,Chinese",Coimbatore,"RS Puram, Coimbatore",India,76.95173611,11.00668611,5.25,4.3,225.0,"RSPuram,Coimbatore,India"
216,That's Y Food,"NorthIndian,Biryani",Coimbatore,"RS Puram, Coimbatore",India,76.95295,11.010375,18.39,4.2,299.0,"RSPuram,Coimbatore,India"
217,CakeBee,"Bakery,Desserts",Coimbatore,"Saibaba Colony, Coimbatore",India,76.94465239,11.02611735,4.6,4.9,200.0,"SaibabaColony,Coimbatore,India"
218,Yari,"NorthIndian,Chinese,StreetFood",Coimbatore,"Saibaba Colony, Coimbatore",India,76.940432,11.02091,9.19,4.2,221.0,"SaibabaColony,Coimbatore,India"
219,Cream Stone,"Desserts,IceCream",Coimbatore,"SMS Hotel, Peelamedu, Coimbatore",India,76.9983492,11.02229761,3.94,4.3,161.0,"SMSHotel,Peelamedu,Coimbatore,India"
220,Barbeque Nation,"NorthIndian,European,Mediterranean",Coimbatore,"Town Hall, Coimbatore",India,76.96330278,10.99413611,18.39,4.4,505.0,"TownHall,Coimbatore,India"
221,The Punjabi Essence Restaurant,"NorthIndian,Chinese",Dehradun,"Chukkuwala, Dehradun",India,78.05987845230769,30.34585398384615,10.51,3.6,102.0,"Chukkuwala,Dehradun,India"
222,Tirupati Restaurant,"SouthIndian,NorthIndian,Chinese",Dehradun,"Chukkuwala, Dehradun",India,78.05987845230769,30.34585398384615,6.57,3.8,115.0,"Chukkuwala,Dehradun,India"
223,Anandam,"Desserts,NorthIndian,Chinese,SouthIndian,FastFood,StreetFood",Dehradun,"Hathibarkala Salwala, Dehradun",India,78.053162,30.335259000000004,8.54,3.9,141.0,"HathibarkalaSalwala,Dehradun,India"
224,Town Table Restaurant,"NorthIndian,Chinese,Continental",Dehradun,"Hathibarkala Salwala, Dehradun",India,78.060221,30.340722,13.13,3.9,173.0,"HathibarkalaSalwala,Dehradun,India"
225,Kalsang Friends Corner,"Chinese,Thai,Tibetan",Dehradun,"Hathibarkala Salwala, Dehradun",India,78.062543,30.346994,9.85,4.2,406.0,"HathibarkalaSalwala,Dehradun,India"
226,The Great Indian Pub,NorthIndian,Dehradun,"Jakhan, Dehradun",India,78.06802238,30.36128079,19.7,4.9,50.0,"Jakhan,Dehradun,India"
227,BMG - All Day Dining,"Chinese,NorthIndian,FastFood",Dehradun,"Jakhan, Dehradun",India,78.06888981,30.36268594,8.19,4.3,63.0,"Jakhan,Dehradun,India"
228,Punjab Grill,"Mughlai,NorthIndian",Dehradun,"Jakhan, Dehradun",India,78.067079,30.359722,16.42,4.0,98.0,"Jakhan,Dehradun,India"
229,TBistro,"NorthIndian,Chinese",Dehradun,"Karanpur, Dehradun",India,78.054222,30.332735,7.22,3.8,230.0,"Karanpur,Dehradun,India"
230,Y Cafe & Restaurant,Cafe,Dehradun,"Karanpur, Dehradun",India,78.04911700000002,30.328174,6.57,4.0,94.0,"Karanpur,Dehradun,India"
231,Eddie's Patisserie,Bakery,Dehradun,"Krishna Nagar, Dehradun",India,78.05987845230769,30.34585398384615,4.6,4.1,64.0,"KrishnaNagar,Dehradun,India"
232,First Gear Cafe,"Cafe,Chinese",Dehradun,"Malsi, Dehradun",India,78.05987845230769,30.34585398384615,9.19,3.9,131.0,"Malsi,Dehradun,India"
233,Dunkin Donuts,"Burger,Desserts",Dehradun,"Pacific Mall, Jakhan, Dehradun",India,78.070453,30.366322,7.88,3.9,101.0,"PacificMall,Jakhan,Dehradun,India"
234,Doon Darbar,"NorthIndian,Mughlai",Dehradun,"Paltan Bazaar, Dehradun",India,78.04026667,30.31952778,7.88,3.9,121.0,"PaltanBazaar,Dehradun,India"
235,Razzmatazz,Cafe,Dehradun,"Race Course, Dehradun",India,78.05987845230769,30.34585398384615,5.25,3.9,39.0,"RaceCourse,Dehradun,India"
236,Barbeque Nation,"NorthIndian,Mediterranean,Asian,Chinese",Dehradun,"Rajpur, Dehradun",India,78.061187,30.3425093,21.01,4.4,66.0,"Rajpur,Dehradun,India"
237,Black Pepper Restaurant,"NorthIndian,Chinese",Dehradun,"Rajpur, Dehradun",India,78.04610600000002,30.327968,15.76,4.0,175.0,"Rajpur,Dehradun,India"
238,Cafe Marigold,"Cafe,Chinese,FastFood",Dehradun,"Rajpur, Dehradun",India,78.05987845230769,30.34585398384615,6.57,4.1,104.0,"Rajpur,Dehradun,India"
239,Jalapenos,"Cafe,Mexican",Dehradun,"Rajpur, Dehradun",India,78.07715102,30.37220198,6.57,4.2,68.0,"Rajpur,Dehradun,India"
240,Kalsang AMA Cafe,Cafe,Dehradun,"Rajpur, Dehradun",India,78.05987845230769,30.34585398384615,7.88,4.2,89.0,"Rajpur,Dehradun,India"
241,Desire Foods,"Chinese,FastFood,Bakery",Faridabad,"Badarpur Border, Faridabad",India,77.3066401,28.4900591,3.28,2.9,4.0,"BadarpurBorder,Faridabad,India"
242,Knight Rock,"NorthIndian,Chinese",Faridabad,"Badarpur Border, Faridabad",India,77.304776,28.4901567,6.57,2.8,16.0,"BadarpurBorder,Faridabad,India"
243,Punjab Restaurant,NorthIndian,Faridabad,"Badarpur Border, Faridabad",India,77.305563,28.4901368,1.97,2.8,8.0,"BadarpurBorder,Faridabad,India"
244,Raju Dhaba,NorthIndian,Faridabad,"Badarpur Border, Faridabad",India,77.30610159999998,28.4900979,1.97,2.9,8.0,"BadarpurBorder,Faridabad,India"
245,Rakheja Bakery,Bakery,Faridabad,"Badarpur Border, Faridabad",India,77.3057446,28.490062,1.31,2.8,7.0,"BadarpurBorder,Faridabad,India"
246,Snax Points,"Chinese,NorthIndian,FastFood",Faridabad,"Badarpur Border, Faridabad",India,77.30538349999998,28.4901198,3.94,3.0,4.0,"BadarpurBorder,Faridabad,India"
247,Cafe And More,"FastFood,NorthIndian",Faridabad,"Charmwood Village, Faridabad",India,77.2905651,28.494663800000005,3.94,2.9,4.0,"CharmwoodVillage,Faridabad,India"
248,Green Chick Chop,"RawMeats,NorthIndian,FastFood",Faridabad,"Charmwood Village, Faridabad",India,77.29052759999998,28.4946804,4.6,3.0,7.0,"CharmwoodVillage,Faridabad,India"
249,Kolkata Hot Kathi Rolls,"FastFood,Chinese",Faridabad,"Charmwood Village, Faridabad",India,77.2918292,28.4922473,3.94,2.9,11.0,"CharmwoodVillage,Faridabad,India"
250,Kebab Xpress,"NorthIndian,Mughlai",Faridabad,"Crown Interiorz Mall, Sector 35, Faridabad, Faridabad",India,77.3074479,28.4698631,7.88,2.8,49.0,"CrownInteriorzMall,Sector35,Faridabad,India"
251,McDonald's,"FastFood,Burger",Faridabad,"Crown Interiorz Mall, Sector 35, Faridabad, Faridabad",India,77.3074479,28.4695043,6.57,3.4,58.0,"CrownInteriorzMall,Sector35,Faridabad,India"
252,Suruchi,"NorthIndian,SouthIndian,Gujarati,Rajasthani",Faridabad,"Crown Interiorz Mall, Sector 35, Faridabad, Faridabad",India,77.3074479,28.4701322,9.19,3.4,233.0,"CrownInteriorzMall,Sector35,Faridabad,India"
253,Berco's,"Chinese,Thai",Faridabad,"Crown Interiorz Mall, Sector 35, Faridabad, Faridabad",India,77.3072684,28.4700256,14.45,3.8,508.0,"CrownInteriorzMall,Sector35,Faridabad,India"
254,Dunkin' Donuts,"Burger,Desserts,FastFood",Faridabad,"Crown Interiorz Mall, Sector 35, Faridabad, Faridabad",India,77.3074031,28.4693655,7.88,3.6,98.0,"CrownInteriorzMall,Sector35,Faridabad,India"
255,The Chocolate Room,"Cafe,Desserts",Faridabad,"Crown Interiorz Mall, Sector 35, Faridabad, Faridabad",India,77.3074031,28.4693655,11.82,3.6,59.0,"CrownInteriorzMall,Sector35,Faridabad,India"
256,KFC,"American,FastFood,Burger",Faridabad,"Crown Interiorz Mall, Sector 35, Faridabad, Faridabad",India,77.30706006,28.46980656,6.57,2.1,57.0,"CrownInteriorzMall,Sector35,Faridabad,India"
257,Barbeque Nation,NorthIndian,Faridabad,"Crown Interiorz Mall, Sector 35, Faridabad, Faridabad",India,77.3073785,28.469862899999995,21.01,4.0,299.0,"CrownInteriorzMall,Sector35,Faridabad,India"
258,Yo! China,Chinese,Faridabad,"Crown Interiorz Mall, Sector 35, Faridabad, Faridabad",India,77.3074031,28.4693655,17.07,4.1,239.0,"CrownInteriorzMall,Sector35,Faridabad,India"
259,Giani's,"IceCream,Desserts",Faridabad,"Crown Plaza Mall, Sector 15, Faridabad, Faridabad",India,77.3130127,28.3980691,5.25,3.2,16.0,"CrownPlazaMall,Sector15,Faridabad,India"
260,Momo-Cha,FastFood,Faridabad,"Crown Plaza Mall, Sector 15, Faridabad, Faridabad",India,77.3130127,28.3979794,2.63,2.7,16.0,"CrownPlazaMall,Sector15,Faridabad,India"
261,Shree Rathnam,"SouthIndian,NorthIndian,Chinese",Faridabad,"Crown Plaza Mall, Sector 15, Faridabad, Faridabad",India,77.3128332,28.397424,10.51,3.4,48.0,"CrownPlazaMall,Sector15,Faridabad,India"
262,Mirage Restro Bar,"NorthIndian,Mughlai",Faridabad,"Crown Plaza Mall, Sector 15, Faridabad, Faridabad",India,77.3131025,28.3978083,13.13,2.4,25.0,"CrownPlazaMall,Sector15,Faridabad,India"
263,Gelato Vinto,"Desserts,IceCream",Faridabad,"Eldeco Station 1 Mall, Sector 12, Faridabad, Faridabad",India,77.31391020000002,28.3868454,3.28,2.8,12.0,"EldecoStation1Mall,Sector12,Faridabad,India"
264,Cakes 'n Bakes - Park Plaza,Bakery,Faridabad,"Park Plaza, Sector 21, Faridabad, Faridabad",India,77.2969459,28.4292178,13.13,3.0,15.0,"ParkPlaza,Sector21,Faridabad,India"
265,Cafe Bite,Cafe,Faridabad,"Parsavnath City Mall, Sector 12, Faridabad, Faridabad",India,77.31444870000001,28.383665,6.57,3.2,19.0,"ParsavnathCityMall,Sector12,Faridabad,India"
266,Cafe Light,"Cafe,Chinese,FastFood",Faridabad,"Parsavnath City Mall, Sector 12, Faridabad, Faridabad",India,77.3144877,28.3837046,6.57,2.8,8.0,"ParsavnathCityMall,Sector12,Faridabad,India"
267,Momo-Cha,"NorthIndian,Chinese",Faridabad,"Sector 10, Faridabad",India,77.3291609,28.3754863,5.91,2.8,20.0,"Sector10,Faridabad,India"
268,Oregano India,"FastFood,Chinese,Italian",Faridabad,"Sector 10, Faridabad",India,77.3266079,28.3689797,6.57,3.1,11.0,"Sector10,Faridabad,India"
269,Sagar Bakery,Bakery,Faridabad,"Sector 10, Faridabad",India,77.3270132,28.3692291,1.97,3.0,11.0,"Sector10,Faridabad,India"
270,Smugglers,NorthIndian,Faridabad,"Sector 10, Faridabad",India,77.329628,28.3702087,5.91,3.1,7.0,"Sector10,Faridabad,India"
271,Welcome,"NorthIndian,Chinese",Faridabad,"Sector 10, Faridabad",India,77.32889780000002,28.377754100000004,9.19,2.9,13.0,"Sector10,Faridabad,India"
272,Chimney,"NorthIndian,Mughlai,Chinese",Faridabad,"Sector 11, Faridabad",India,77.31902600000002,28.3725172,10.51,3.3,25.0,"Sector11,Faridabad,India"
273,Chopstick,Chinese,Faridabad,"Sector 11, Faridabad",India,77.3185858,28.371835,3.94,3.0,22.0,"Sector11,Faridabad,India"
274,Hot & Tasty Chinese Food,"NorthIndian,Chinese",Faridabad,"Sector 11, Faridabad",India,77.3184832,28.3719511,5.91,2.6,26.0,"Sector11,Faridabad,India"
275,Sanjha Chulha,"NorthIndian,Mughlai",Faridabad,"Sector 11, Faridabad",India,77.32157,28.3692881,9.19,2.9,16.0,"Sector11,Faridabad,India"
276,Frontier,Bakery,Faridabad,"Sector 12, Faridabad",India,77.31429167,28.38339444,2.63,2.9,7.0,"Sector12,Faridabad,India"
277,Oxy Lounge,"NorthIndian,Chinese,Italian",Faridabad,"Sector 12, Faridabad",India,77.3244365,28.384502,19.7,3.1,28.0,"Sector12,Faridabad,India"
278,Al Bake,"NorthIndian,Chinese",Faridabad,"Sector 15, Faridabad",India,77.3229299,28.395009,7.88,3.2,31.0,"Sector15,Faridabad,India"
279,Anupam Sweet,"NorthIndian,SouthIndian,Chinese,FastFood,Mithai",Faridabad,"Sector 15, Faridabad",India,77.32225679999998,28.3949008,5.25,3.4,70.0,"Sector15,Faridabad,India"
280,Cafe Coffee Day,Cafe,Faridabad,"Sector 15, Faridabad",India,77.3236112,28.3952671,5.91,3.3,67.0,"Sector15,Faridabad,India"
281,Chicago Pizza,Pizza,Faridabad,"Sector 15, Faridabad",India,77.3217184,28.395029600000004,7.88,2.7,35.0,"Sector15,Faridabad,India"
282,Crispy Crust,"NorthIndian,Chinese,FastFood",Faridabad,"Sector 15, Faridabad",India,77.3241683,28.3950992,6.57,3.4,22.0,"Sector15,Faridabad,India"
283,Frontier,Bakery,Faridabad,"Sector 15, Faridabad",India,77.3235114,28.3951274,2.63,3.3,17.0,"Sector15,Faridabad,India"
284,Gulab,"NorthIndian,SouthIndian,FastFood,StreetFood,Mithai",Faridabad,"Sector 15, Faridabad",India,77.3239437,28.395290600000006,7.88,2.6,39.0,"Sector15,Faridabad,India"
285,Hunger Cure Express,"FastFood,Beverages",Faridabad,"Sector 15, Faridabad",India,77.3217312,28.3946937,6.57,3.3,35.0,"Sector15,Faridabad,India"
286,Maitre Patissier,Bakery,Faridabad,"Sector 15, Faridabad",India,77.31169511786031,28.43327933982532,6.57,3.4,35.0,"Sector15,Faridabad,India"
287,Momo-Cha,"Chinese,FastFood",Faridabad,"Sector 15, Faridabad",India,77.3224363,28.3951869,5.25,2.7,32.0,"Sector15,Faridabad,India"
288,Nirula's,"FastFood,Desserts,IceCream,Beverages",Faridabad,"Sector 15, Faridabad",India,77.292179,28.452631,12.48,2.6,14.0,"Sector15,Faridabad,India"
289,The Grub House,"Cafe,NorthIndian,Chinese,Continental",Faridabad,"Sector 15, Faridabad",India,77.32324399999997,28.3950834,7.88,2.7,17.0,"Sector15,Faridabad,India"
290,Twenty Four Seven,"FastFood,NorthIndian",Faridabad,"Sector 15, Faridabad",India,77.3234608,28.3950913,3.94,3.4,35.0,"Sector15,Faridabad,India"
291,Cafe Parmesan,Italian,Faridabad,"Sector 15, Faridabad",India,77.32364790000003,28.3950766,13.13,4.5,799.0,"Sector15,Faridabad,India"
292,Briosca,"Bakery,FastFood",Faridabad,"Sector 15, Faridabad",India,77.3234235,28.3952798,5.25,3.6,62.0,"Sector15,Faridabad,India"
293,Burger Point,"Burger,FastFood",Faridabad,"Sector 15, Faridabad",India,77.32207729999998,28.394973600000004,3.94,3.5,24.0,"Sector15,Faridabad,India"
294,Cafe Grub Up,"Cafe,American,Mexican,Italian,Thai",Faridabad,"Sector 15, Faridabad",India,77.3235233,28.395196,11.82,3.8,134.0,"Sector15,Faridabad,India"
295,Cakes At Bhawanas,Bakery,Faridabad,"Sector 15, Faridabad",India,77.317231,28.393261,5.25,3.5,26.0,"Sector15,Faridabad,India"
296,Chaudhary Bhojnalaya,NorthIndian,Faridabad,"Sector 15, Faridabad",India,77.3240517,28.395338899999995,5.25,3.6,93.0,"Sector15,Faridabad,India"
297,Chickenette,"RawMeats,NorthIndian,Chinese,FastFood",Faridabad,"Sector 15, Faridabad",India,77.3244107,28.3951035,8.54,3.7,280.0,"Sector15,Faridabad,India"
298,Giani,"IceCream,Desserts",Faridabad,"Sector 15, Faridabad",India,77.32164279999998,28.3951385,5.25,3.6,70.0,"Sector15,Faridabad,India"
299,Green Chick Chop,"RawMeats,NorthIndian,FastFood",Faridabad,"Sector 15, Faridabad",India,77.3244107,28.3951932,4.6,3.5,31.0,"Sector15,Faridabad,India"
300,Hash Stix,FastFood,Faridabad,"Sector 15, Faridabad",India,77.32343964,28.39483205,3.28,3.6,25.0,"Sector15,Faridabad,India"
301,Juice On Go,"Juices,Beverages",Faridabad,"Sector 15, Faridabad",India,77.32328642,28.39527358,1.97,3.5,18.0,"Sector15,Faridabad,India"
302,Keventers,Beverages,Faridabad,"Sector 15, Faridabad",India,77.32180809999998,28.3947688,5.25,3.6,27.0,"Sector15,Faridabad,India"
303,MD's Kebabs & Curries,"NorthIndian,Mughlai,Chinese",Faridabad,"Sector 15, Faridabad",India,77.3244107,28.395283000000006,9.85,3.8,27.0,"Sector15,Faridabad,India"
304,Perfect Bake,"Bakery,FastFood",Faridabad,"Sector 15, Faridabad",India,77.29659833,28.43002333,5.25,3.5,39.0,"Sector15,Faridabad,India"
305,Perfect Bake,"Bakery,FastFood",Faridabad,"Sector 15, Faridabad",India,77.3231543,28.3952545,5.25,3.6,126.0,"Sector15,Faridabad,India"
306,Sethi's Delicacy,"FastFood,Bakery",Faridabad,"Sector 15, Faridabad",India,77.3244651,28.3950376,1.97,3.8,75.0,"Sector15,Faridabad,India"
307,Subway,"American,FastFood,Salad,HealthyFood",Faridabad,"Sector 15, Faridabad",India,77.32194270000002,28.3948264,6.57,3.5,143.0,"Sector15,Faridabad,India"
308,Cafí© Bogchi,"Cafe,Italian,Mexican,Continental",Faridabad,"Sector 15, Faridabad",India,77.32380275,28.39572041,8.54,4.1,153.0,"Sector15,Faridabad,India"
309,Ashoka Restaurant,NorthIndian,Faridabad,"Sector 16, Faridabad",India,77.32032729999997,28.410469300000006,5.25,2.9,43.0,"Sector16,Faridabad,India"
310,Baskin Robbins,IceCream,Faridabad,"Sector 16, Faridabad",India,77.3201927,28.4107707,3.94,2.9,4.0,"Sector16,Faridabad,India"
311,China Hot Pot,"Chinese,FastFood",Faridabad,"Sector 16, Faridabad",India,77.31920629999998,28.4106963,5.25,2.5,25.0,"Sector16,Faridabad,India"
312,Handi Chhadeyan Di,NorthIndian,Faridabad,"Sector 16, Faridabad",India,77.3185323,28.4106593,5.25,3.1,26.0,"Sector16,Faridabad,India"
313,Hungrill,"NorthIndian,Chinese,Continental",Faridabad,"Sector 16, Faridabad",India,77.31907650000002,28.4108198,6.57,3.0,4.0,"Sector16,Faridabad,India"
314,Kant Khana Khazana,NorthIndian,Faridabad,"Sector 16, Faridabad",India,77.318667,28.4106772,3.28,3.4,22.0,"Sector16,Faridabad,India"
315,Open Yard,"NorthIndian,Chinese,Continental",Faridabad,"Sector 16, Faridabad",India,77.3199015,28.4095652,10.51,3.3,14.0,"Sector16,Faridabad,India"
316,Recipe Badshah,NorthIndian,Faridabad,"Sector 16, Faridabad",India,77.31169511786031,28.43327933982532,3.94,3.1,8.0,"Sector16,Faridabad,India"
317,The Chai Cafe,"Cafe,Chinese",Faridabad,"Sector 16, Faridabad",India,77.3185772,28.4108878,5.25,3.1,8.0,"Sector16,Faridabad,India"
318,Eat N Treat,"Chinese,NorthIndian",Faridabad,"Sector 17, Faridabad",India,77.32660229999998,28.4101024,5.25,2.8,20.0,"Sector17,Faridabad,India"
319,Hotel Ekant,"NorthIndian,Mughlai,Chinese",Faridabad,"Sector 17, Faridabad",India,77.329167,28.4101795,9.19,2.7,39.0,"Sector17,Faridabad,India"
320,Momo-Cha,"NorthIndian,Chinese",Faridabad,"Sector 17, Faridabad",India,77.32889780000002,28.4106029,7.88,2.7,56.0,"Sector17,Faridabad,India"
321,Paradise Inn,"NorthIndian,Mughlai,Chinese",Faridabad,"Sector 17, Faridabad",India,77.32757640000001,28.4103725,6.57,2.7,43.0,"Sector17,Faridabad,India"
322,Red Chilli,Chinese,Faridabad,"Sector 17, Faridabad",India,77.32674399999998,28.4099515,3.94,2.8,9.0,"Sector17,Faridabad,India"
323,Shiv Restaurant,NorthIndian,Faridabad,"Sector 17, Faridabad",India,77.3278324,28.4101647,5.25,2.7,20.0,"Sector17,Faridabad,India"
324,Sohan Sweets & Namkeen,Mithai,Faridabad,"Sector 17, Faridabad",India,77.3279106,28.410330600000005,1.31,3.2,41.0,"Sector17,Faridabad,India"
325,The Binge Box Cafe,Cafe,Faridabad,"Sector 17, Faridabad",India,77.3279106,28.410599800000004,6.57,3.4,18.0,"Sector17,Faridabad,India"
326,Tmos Moving Feast,"Chinese,NorthIndian",Faridabad,"Sector 17, Faridabad",India,77.32609671,28.4101156,9.19,3.3,76.0,"Sector17,Faridabad,India"
327,Parkash Dhaba,"NorthIndian,Chinese",Faridabad,"Sector 19, Faridabad",India,77.31382049999998,28.417529,2.63,3.0,6.0,"Sector19,Faridabad,India"
328,Sanjha Chulha,"NorthIndian,Mughlai",Faridabad,"Sector 19, Faridabad",India,77.31444870000001,28.4175882,9.19,3.3,219.0,"Sector19,Faridabad,India"
329,Hareram Bikanerzaika,"Mithai,StreetFood",Faridabad,"Sector 21, Faridabad",India,77.2969594,28.4304159,2.63,2.8,11.0,"Sector21,Faridabad,India"
330,Kulcha Paaji,StreetFood,Faridabad,"Sector 21, Faridabad",India,77.29676640000002,28.4317132,1.31,3.1,12.0,"Sector21,Faridabad,India"
331,Shree Bikaner Misthan Bhandar,"StreetFood,SouthIndian,Mithai",Faridabad,"Sector 21, Faridabad",India,77.2964432,28.4301217,4.6,2.8,13.0,"Sector21,Faridabad,India"
332,"The Hub - Gourmet, Bakers & More","Bakery,FastFood",Faridabad,"Sector 21, Faridabad",India,77.31169511786031,28.43327933982532,2.63,3.0,7.0,"Sector21,Faridabad,India"
333,Funk House Cafe,"Cafe,Italian,Salad",Faridabad,"Sector 28, Faridabad",India,77.31297973,28.43892133,8.54,2.6,15.0,"Sector28,Faridabad,India"
334,Shiksha Fast Food,"FastFood,Chinese",Faridabad,"Sector 28, Faridabad",India,77.315069,28.4353341,2.63,2.9,5.0,"Sector28,Faridabad,India"
335,Lalit Kathi Rolls Momos,FastFood,Faridabad,"Sector 29, Faridabad",India,77.32112559999999,28.4334516,1.31,3.1,9.0,"Sector29,Faridabad,India"
336,Butter & Grace,"NorthIndian,Chinese,Italian,FastFood",Faridabad,"Sector 31, Faridabad",India,77.309147,28.446933,9.19,3.1,7.0,"Sector31,Faridabad,India"
337,Green Chick Chop,"RawMeats,NorthIndian,FastFood",Faridabad,"Sector 31, Faridabad",India,77.317127,28.4465451,4.6,3.1,9.0,"Sector31,Faridabad,India"
338,Snacks Bar,Chinese,Faridabad,"Sector 31, Faridabad",India,77.315795,28.44526160000001,4.6,2.9,4.0,"Sector31,Faridabad,India"
339,Anupama Sweets & Family Restaurant,"Mithai,NorthIndian,SouthIndian,Chinese,FastFood",Faridabad,"Sector 34, Faridabad",India,77.3149118,28.4718644,5.25,2.7,28.0,"Sector34,Faridabad,India"
340,Shree Rathnam,"SouthIndian,NorthIndian,Chinese",Faridabad,"Sector 34, Faridabad",India,77.31071949999998,28.471413,10.51,2.7,29.0,"Sector34,Faridabad,India"
341,Desi Tadka,"NorthIndian,Mughlai,Chinese",Faridabad,"Sector 37, Faridabad",India,77.30693936,28.48429689,6.57,3.0,6.0,"Sector37,Faridabad,India"
342,Destination Live,"NorthIndian,Mughlai,Chinese",Faridabad,"Sector 37, Faridabad",India,77.30628109999998,28.4807864,6.57,3.3,12.0,"Sector37,Faridabad,India"
343,Kay's Bake Land,"Bakery,Desserts",Faridabad,"Sector 37, Faridabad",India,77.3116575,28.480381,1.97,3.1,19.0,"Sector37,Faridabad,India"
344,Kay's Food Land,"Bakery,Desserts",Faridabad,"Sector 37, Faridabad",India,77.31040990000002,28.4805482,1.31,3.1,14.0,"Sector37,Faridabad,India"
345,Laziz Restaurant,"NorthIndian,Mughlai",Faridabad,"Sector 37, Faridabad",India,77.30677778,28.48426667,7.88,2.8,11.0,"Sector37,Faridabad,India"
346,Le Chef Restro Bar,"NorthIndian,Chinese",Faridabad,"Sector 37, Faridabad",India,77.31049959999999,28.480467,13.13,2.7,70.0,"Sector37,Faridabad,India"
347,Republic of Chicken,"RawMeats,FastFood",Faridabad,"Sector 37, Faridabad",India,77.3107689,28.4805821,5.25,3.1,18.0,"Sector37,Faridabad,India"
348,Tanishka Restaurant & Caterers,"NorthIndian,Chinese",Faridabad,"Sector 37, Faridabad",India,77.3113972,28.4805517,3.94,2.9,14.0,"Sector37,Faridabad,India"
349,The Tandoori Times,NorthIndian,Faridabad,"Sector 37, Faridabad",India,77.31155059999998,28.4804188,6.57,2.7,48.0,"Sector37,Faridabad,India"
350,Twist of Italy,"Chinese,FastFood",Faridabad,"Sector 37, Faridabad",India,77.31095429999998,28.4807634,4.6,3.6,52.0,"Sector37,Faridabad,India"
351,Cravings,"NorthIndian,Mughlai,Chinese",Faridabad,"Sector 41, Faridabad",India,77.28759091,28.46626355,6.57,3.0,4.0,"Sector41,Faridabad,India"
352,Domino's Pizza,"Pizza,FastFood",Faridabad,"Sector 43, Faridabad",India,77.3001795,28.4609554,9.19,2.9,10.0,"Sector43,Faridabad,India"
353,Green Chick Chop,"RawMeats,NorthIndian,FastFood",Faridabad,"Sector 43, Faridabad",India,77.2886873,28.460556,4.6,3.1,5.0,"Sector43,Faridabad,India"
354,Punjabi Culture,"NorthIndian,Mughlai",Faridabad,"Sector 43, Faridabad",India,77.2978395,28.4622059,6.57,2.9,4.0,"Sector43,Faridabad,India"
355,Three Olives,"Italian,FastFood",Faridabad,"Sector 43, Faridabad",India,77.30083365,28.46227858,7.22,2.9,4.0,"Sector43,Faridabad,India"
356,Hunger Cure,"FastFood,Chinese",Faridabad,"Sector 46, Faridabad",India,77.2983871,28.4376977,9.19,3.2,47.0,"Sector46,Faridabad,India"
357,Sanjha Chulha,"NorthIndian,Mughlai",Faridabad,"Sector 46, Faridabad",India,77.2983353,28.4375489,9.19,2.5,79.0,"Sector46,Faridabad,India"
358,Queens Cakes,Bakery,Faridabad,"Sector 46, Faridabad",India,77.2984265,28.4370903,2.63,3.5,29.0,"Sector46,Faridabad,India"
359,Invitation Restaurant,"NorthIndian,SouthIndian,Chinese,FastFood",Faridabad,"Sector 7, Faridabad",India,77.3239171,28.363238,6.57,2.7,17.0,"Sector7,Faridabad,India"
360,Kaushik Bakery,Bakery,Faridabad,"Sector 7, Faridabad",India,77.32414150000002,28.3632142,2.63,3.0,9.0,"Sector7,Faridabad,India"
361,Rama Vaishnav Bhojnalaya,"NorthIndian,Chinese",Faridabad,"Sector 7, Faridabad",India,77.3259973,28.3638989,3.28,3.0,7.0,"Sector7,Faridabad,India"
362,Shiv Saras Vyanjan,Mithai,Faridabad,"Sector 7, Faridabad",India,77.3282696,28.3691677,1.31,2.9,5.0,"Sector7,Faridabad,India"
363,Shree Bikaner Misthan Bhandar,"Mithai,Bakery,StreetFood,Chinese,SouthIndian",Faridabad,"Sector 7, Faridabad",India,77.32705828,28.36942587,3.94,3.0,8.0,"Sector7,Faridabad,India"
364,Shree Bikaner Misthan Bhandar,"Mithai,StreetFood",Faridabad,"Sector 7, Faridabad",India,77.3264093,28.3633036,1.97,3.1,15.0,"Sector7,Faridabad,India"
365,Standard Family Restaurant,NorthIndian,Faridabad,"Sector 7, Faridabad",India,77.3260374,28.3633487,5.91,2.9,16.0,"Sector7,Faridabad,India"
366,The Hunger End,"NorthIndian,Chinese",Faridabad,"Sector 7, Faridabad",India,77.32853879999998,28.3686544,6.57,3.0,4.0,"Sector7,Faridabad,India"
367,Anupam Sweets & Restaurant,"NorthIndian,Chinese,FastFood",Faridabad,"Sector 86, Faridabad",India,77.3396661,28.408743800000003,5.91,3.0,10.0,"Sector86,Faridabad,India"
368,Caramel,"NorthIndian,Chinese,Continental",Faridabad,"Sector 86, Faridabad",India,77.33637929,28.40775168,7.88,2.9,9.0,"Sector86,Faridabad,India"
369,Chaska Restaurant,"NorthIndian,Chinese",Faridabad,"Sector 86, Faridabad",India,77.3364513,28.4086778,8.54,3.2,24.0,"Sector86,Faridabad,India"
370,Club Pizzeria,Pizza,Faridabad,"Sector 86, Faridabad",India,77.33975579999998,28.4085728,7.22,3.4,19.0,"Sector86,Faridabad,India"
371,Gupha,"NorthIndian,Chinese",Faridabad,"Sector 86, Faridabad",India,77.34231301,28.41226833,6.57,2.9,8.0,"Sector86,Faridabad,India"
372,Indian Gourmet,"NorthIndian,Chinese,RawMeats",Faridabad,"Sector 86, Faridabad",India,77.3409272,28.408105600000006,5.91,3.0,8.0,"Sector86,Faridabad,India"
373,Tandoori Zaaika's,"NorthIndian,Chinese",Faridabad,"Sector 86, Faridabad",India,77.336292,28.410219399999995,6.57,3.2,39.0,"Sector86,Faridabad,India"
374,TCD Cake & Bake,"Bakery,FastFood",Faridabad,"Sector 86, Faridabad",India,77.3372048,28.4098256,3.94,3.1,10.0,"Sector86,Faridabad,India"
375,The Grill Darbar,"NorthIndian,Mughlai,Chinese",Faridabad,"Sector 86, Faridabad",India,77.33666,28.4080574,6.57,3.3,17.0,"Sector86,Faridabad,India"
376,Urban Cuisine,"NorthIndian,Chinese,Mughlai",Faridabad,"Sector 86, Faridabad",India,77.34098259999998,28.4080719,6.57,3.4,37.0,"Sector86,Faridabad,India"
377,Mister Mughal,Mughlai,Faridabad,"Sector 86, Faridabad",India,77.3423218,28.4067402,7.88,3.5,33.0,"Sector86,Faridabad,India"
378,The Hub,"Bakery,FastFood",Faridabad,"Sector 9, Faridabad",India,77.33156190000003,28.376537100000004,2.63,3.1,9.0,"Sector9,Faridabad,India"
379,Aggarwal Sweets Centre,"Mithai,StreetFood,Chinese",Faridabad,"Suraj Kund, Faridabad",India,77.2899232,28.4997177,1.31,2.9,4.0,"SurajKund,Faridabad,India"
380,Bawarchi,"NorthIndian,Chinese,Mughlai",Faridabad,"Suraj Kund, Faridabad",India,77.29385857,28.49820594,7.22,3.0,14.0,"SurajKund,Faridabad,India"
381,D ART of Flavour,"NorthIndian,Chinese",Faridabad,"Suraj Kund, Faridabad",India,77.2937593,28.4982147,6.57,2.8,13.0,"SurajKund,Faridabad,India"
382,Italia Cafe by Aura,"FastFood,Beverages",Faridabad,"Suraj Kund, Faridabad",India,77.2903929,28.5000937,5.25,2.8,5.0,"SurajKund,Faridabad,India"
383,Pizza Street,"FastFood,Pizza",Faridabad,"Suraj Kund, Faridabad",India,77.2903,28.50064,7.22,2.6,12.0,"SurajKund,Faridabad,India"
384,Rock Cafe,"NorthIndian,Chinese,SouthIndian",Faridabad,"Suraj Kund, Faridabad",India,77.28699759999998,28.4727738,7.22,3.0,8.0,"SurajKund,Faridabad,India"
385,Sardaar Ji Chaap & Rolls,NorthIndian,Faridabad,"Suraj Kund, Faridabad",India,77.2896526,28.49916279,3.94,3.1,7.0,"SurajKund,Faridabad,India"
386,Spice Wok,"NorthIndian,Chinese",Faridabad,"Suraj Kund, Faridabad",India,77.2930411,28.4992231,7.88,3.1,18.0,"SurajKund,Faridabad,India"
387,Vrindavan Sweets & Restaurant,"NorthIndian,Chinese,SouthIndian,FastFood",Faridabad,"Suraj Kund, Faridabad",India,77.2902208,28.5002348,4.6,3.0,22.0,"SurajKund,Faridabad,India"
388,Yummy Cake,Bakery,Faridabad,"Suraj Kund, Faridabad",India,77.31169511786031,28.43327933982532,5.25,3.0,4.0,"SurajKund,Faridabad,India"
389,Bakers Delight - The Atrium,"Bakery,Desserts",Faridabad,"The Atrium, Suraj Kund, Faridabad",India,77.283011,28.489796,9.19,3.0,10.0,"TheAtrium,SurajKund,Faridabad,India"
390,On The Rocks - The  Atrium,FingerFood,Faridabad,"The Atrium, Suraj Kund, Faridabad",India,77.283011,28.489796,18.39,3.1,18.0,"TheAtrium,SurajKund,Faridabad,India"
391,World Cafe - Vibe by The LaLiT Traveller,"NorthIndian,Continental,Chinese",Faridabad,"Vibe by The LaLit Traveller, Mathura Road, Faridabad",India,77.30607320000001,28.4729124,24.95,3.3,56.0,"VibebyTheLaLitTraveller,MathuraRoad,Faridabad,India"
392,Chaudhary Ke Mashhoor Paranthe,NorthIndian,Ghaziabad,"Indirapuram, Ghaziabad",India,77.37444167,28.63601389,1.97,2.8,14.0,"Indirapuram,Ghaziabad,India"
393,Thakur Bakers,Bakery,Ghaziabad,"Indirapuram, Ghaziabad",India,77.37419167,28.63602222,1.97,3.0,6.0,"Indirapuram,Ghaziabad,India"
394,FoodByMom,NorthIndian,Ghaziabad,"Indirapuram, Ghaziabad",India,77.369326,28.635083,3.94,3.6,161.0,"Indirapuram,Ghaziabad,India"
395,Mr. Brown,"FastFood,Cafe,Desserts,Bakery",Ghaziabad,"Indirapuram, Ghaziabad",India,77.378751,28.637449,6.57,3.9,52.0,"Indirapuram,Ghaziabad,India"
396,9 Mars Lounge,"NorthIndian,Chinese",Ghaziabad,"Shipra Mall, Indirapuram, Ghaziabad",India,77.36989718,28.63423199,32.83,2.5,184.0,"ShipraMall,Indirapuram,Ghaziabad,India"
397,Barista,Cafe,Ghaziabad,"Shipra Mall, Indirapuram, Ghaziabad",India,77.37024722,28.63404167,8.54,3.4,33.0,"ShipraMall,Indirapuram,Ghaziabad,India"
398,Baskin Robbins,IceCream,Ghaziabad,"Shipra Mall, Indirapuram, Ghaziabad",India,77.3704,28.63392778,3.94,3.3,27.0,"ShipraMall,Indirapuram,Ghaziabad,India"
399,Burger King,"Burger,FastFood",Ghaziabad,"Shipra Mall, Indirapuram, Ghaziabad",India,77.36986466,28.63388299,6.57,3.4,327.0,"ShipraMall,Indirapuram,Ghaziabad,India"
400,Cafe Coffee Day,Cafe,Ghaziabad,"Shipra Mall, Indirapuram, Ghaziabad",India,77.37020833,28.63404722,5.91,3.2,63.0,"ShipraMall,Indirapuram,Ghaziabad,India"
401,Chinese X'Press,Chinese,Ghaziabad,"Shipra Mall, Indirapuram, Ghaziabad",India,77.36986466,28.63388299,7.88,2.9,16.0,"ShipraMall,Indirapuram,Ghaziabad,India"
402,Cinch,"NorthIndian,Chinese,Continental",Ghaziabad,"Shipra Mall, Indirapuram, Ghaziabad",India,77.36972552,28.63412753,19.7,2.6,92.0,"ShipraMall,Indirapuram,Ghaziabad,India"
403,Costa Coffee,Cafe,Ghaziabad,"Shipra Mall, Indirapuram, Ghaziabad",India,77.370576,28.634123,7.88,3.3,60.0,"ShipraMall,Indirapuram,Ghaziabad,India"
404,Domino's Pizza,"Pizza,FastFood",Ghaziabad,"Shipra Mall, Indirapuram, Ghaziabad",India,77.36981537,28.63407809,9.19,3.2,17.0,"ShipraMall,Indirapuram,Ghaziabad,India"
405,Dosa X'press,SouthIndian,Ghaziabad,"Shipra Mall, Indirapuram, Ghaziabad",India,77.36972786,28.63378764,6.57,3.0,6.0,"ShipraMall,Indirapuram,Ghaziabad,India"
406,Kebab Xpress,"NorthIndian,Mughlai",Ghaziabad,"Shipra Mall, Indirapuram, Ghaziabad",India,77.36959241,28.63383826,7.88,2.7,14.0,"ShipraMall,Indirapuram,Ghaziabad,India"
407,Let's Noodle,Chinese,Ghaziabad,"Shipra Mall, Indirapuram, Ghaziabad",India,77.36971814,28.63421758,9.19,2.6,181.0,"ShipraMall,Indirapuram,Ghaziabad,India"
408,McDonald's,"FastFood,Burger",Ghaziabad,"Shipra Mall, Indirapuram, Ghaziabad",India,77.37036925,28.63401924,6.57,3.3,150.0,"ShipraMall,Indirapuram,Ghaziabad,India"
409,Mx Corn,FastFood,Ghaziabad,"Shipra Mall, Indirapuram, Ghaziabad",India,77.36987706,28.63431586,1.31,3.1,7.0,"ShipraMall,Indirapuram,Ghaziabad,India"
410,Dunkin' Donuts,"Burger,Desserts,FastFood",Ghaziabad,"Shipra Mall, Indirapuram, Ghaziabad",India,77.37019444,28.634175,7.88,3.6,252.0,"ShipraMall,Indirapuram,Ghaziabad,India"
411,Haldiram's,"NorthIndian,SouthIndian,Chinese,StreetFood,FastFood,Mithai,Desserts",Ghaziabad,"Shipra Mall, Indirapuram, Ghaziabad",India,77.37023715,28.6339389,7.88,3.6,187.0,"ShipraMall,Indirapuram,Ghaziabad,India"
412,Pind Balluchi,"NorthIndian,Mughlai",Ghaziabad,"Shipra Mall, Indirapuram, Ghaziabad",India,77.37016473,28.63397039,13.13,1.8,322.0,"ShipraMall,Indirapuram,Ghaziabad,India"
413,Maini Restaurant,"NorthIndian,FastFood",Ghaziabad,"Surya Nagar, Ghaziabad",India,77.3252184,28.6698582,5.25,3.3,114.0,"SuryaNagar,Ghaziabad,India"
414,The Dosa King,"SouthIndian,NorthIndian,Chinese",Ghaziabad,"Surya Nagar, Ghaziabad",India,77.3231543,28.6644658,7.22,3.2,80.0,"SuryaNagar,Ghaziabad,India"
415,Baba Au Rhum,"Italian,French,Cafe",Goa,"Anjuna, Goa",India,73.75574991,15.57668259,10.51,4.5,280.0,"Anjuna,Goa,India"
416,Burger Factory,FastFood,Goa,"Anjuna, Goa",India,73.74360556,15.58565833,14.45,4.8,415.0,"Anjuna,Goa,India"
417,Club Cubana,FingerFood,Goa,"Anjuna, Goa",India,73.76688333,15.57482778,26.26,4.4,646.0,"Anjuna,Goa,India"
418,Curlies,"Continental,NorthIndian,Italian,Seafood,Goan",Goa,"Anjuna Beach, Anjuna, Goa",India,73.74229444,15.5696,19.7,3.5,1681.0,"AnjunaBeach,Anjuna,Goa,India"
419,La Plage,"Seafood,French",Goa,"Arambol, Goa",India,73.79118388235295,15.503760802941176,10.51,4.6,302.0,"Arambol,Goa,India"
420,St. Anthony's,"NorthIndian,Chinese,Continental,Goan,Seafood",Goa,"Baga, Goa",India,73.74909167,15.56155,14.45,3.8,911.0,"Baga,Goa,India"
421,Britto's Bar & Restaurant,"NorthIndian,Continental,Chinese,Seafood",Goa,"Baga, Goa",India,73.74947806,15.56129549,18.39,4.3,2191.0,"Baga,Goa,India"
422,Fat Fish,"NorthIndian,Continental,Goan",Goa,"Baga, Goa",India,73.76363333,15.55656111,13.13,4.2,856.0,"Baga,Goa,India"
423,Martin's Corner,"Goan,Seafood,Chinese,NorthIndian",Goa,"Betalbatim, Goa",India,73.91433611,15.30389722,21.01,4.4,1115.0,"Betalbatim,Goa,India"
424,Infantaria,"Italian,Continental,Goan",Goa,"Calangute, Goa",India,73.76043056,15.54659444,10.51,3.7,1221.0,"Calangute,Goa,India"
425,Souza Lobo,"NorthIndian,Continental,Goan",Goa,"Calangute Beach, Calangute, Goa",India,73.75573611,15.54441944,17.07,4.3,918.0,"CalanguteBeach,Calangute,Goa,India"
426,Fisherman's Cove,"Goan,NorthIndian,Chinese",Goa,"Candolim, Goa",India,73.76817222,15.51683333,9.19,3.8,601.0,"Candolim,Goa,India"
427,Calamari,"Goan,Seafood,Chinese",Goa,"Candolim, Goa",India,73.7666682,15.5062047,10.51,4.2,414.0,"Candolim,Goa,India"
428,The Fisherman's Wharf,"Continental,Goan,Seafood,NorthIndian",Goa,"Cavelossim, Goa",India,73.95088889,15.15794444,14.45,4.6,555.0,"Cavelossim,Goa,India"
429,LPK Waterfront,FingerFood,Goa,"Nerul, Goa",India,73.78345949999998,15.51315,19.7,3.7,516.0,"Nerul,Goa,India"
430,Ritz Classic,"Goan,Seafood,NorthIndian",Goa,"Panaji, Goa",India,73.82691111,15.49860278,7.88,4.5,840.0,"Panaji,Goa,India"
431,The Black Sheep Bistro,"Seafood,Continental,European,German",Goa,"Panaji, Goa",India,73.82536400000002,15.496162,19.7,4.7,681.0,"Panaji,Goa,India"
432,Cafe Al Fresco by Cantina Bodega,Cafe,Goa,"Panaji, Goa",India,73.827423,15.49395,10.51,4.3,265.0,"Panaji,Goa,India"
433,The Fisherman's Wharf,"Continental,Goan,Seafood,NorthIndian",Goa,"Panaji, Goa",India,73.79118388235295,15.503760802941176,14.45,4.4,323.0,"Panaji,Goa,India"
434,Antares,Seafood,Goa,"Vagator, Goa",India,73.79118388235295,15.503760802941176,26.26,4.2,367.0,"Vagator,Goa,India"
435,K Lab,"Cafe,Beverages",Gurgaon," ILD Trade Centre Mall, Sohna Road, Gurgaon",India,77.0393103,28.4248315,4.6,3.4,16.0,"ILDTradeCentreMall,SohnaRoad,Gurgaon,India"
436,Pind Balluchi,"NorthIndian,Mughlai",Gurgaon," ILD Trade Centre Mall, Sohna Road, Gurgaon",India,77.0392204,28.4249125,10.51,2.7,80.0,"ILDTradeCentreMall,SohnaRoad,Gurgaon,India"
437,Punjab Grill,"NorthIndian,Mughlai",Gurgaon,"Ambience Mall, Gurgaon, Gurgaon",India,77.09711779999998,28.5030769,26.26,4.3,1887.0,"AmbienceMall,Gurgaon,India"
438,Zambar,"SouthIndian,Seafood,Kerala",Gurgaon,"Ambience Mall, Gurgaon, Gurgaon",India,77.0971853,28.5026128,18.39,4.0,802.0,"AmbienceMall,Gurgaon,India"
439,Cakes & More,Bakery,Gurgaon,"Ansal Plaza Mall, Palam Vihar, Gurgaon",India,77.04200909999999,28.511416200000006,3.28,3.0,4.0,"AnsalPlazaMall,PalamVihar,Gurgaon,India"
440,Kwality Wall's Swirl's,IceCream,Gurgaon,"Ansal Plaza Mall, Palam Vihar, Gurgaon",India,77.0419641,28.5114567,2.63,3.0,5.0,"AnsalPlazaMall,PalamVihar,Gurgaon,India"
441,Yo! Dimsum,Chinese,Gurgaon,"Ansal Plaza Mall, Palam Vihar, Gurgaon",India,77.04200909999999,28.5115059,2.63,3.0,10.0,"AnsalPlazaMall,PalamVihar,Gurgaon,India"
442,Red,"Japanese,Thai,Chinese",Gurgaon,"Ardee City, Gurgaon",India,77.08785083,28.44070881,15.76,3.0,57.0,"ArdeeCity,Gurgaon,India"
443,Rocketchefs,"Pizza,Desserts",Gurgaon,"Ardee City, Gurgaon",India,77.0855313,28.442393300000006,6.57,3.1,4.0,"ArdeeCity,Gurgaon,India"
444,The Fresh Chicken Store,"RawMeats,FastFood",Gurgaon,"Ardee City, Gurgaon",India,77.0757671,28.4418793,4.6,2.9,4.0,"ArdeeCity,Gurgaon,India"
445,Club Tokyo - Best Western Skycity Hotel,Japanese,Gurgaon,"Best Western Skycity Hotel, Sector 15, Gurgaon, Gurgaon",India,77.0347151,28.458087899999995,19.7,2.8,13.0,"BestWesternSkycityHotel,Sector15,Gurgaon,India"
446,Lattitude - Skycity Hotel,"NorthIndian,Chinese,Continental",Gurgaon,"Best Western Skycity Hotel, Sector 15, Gurgaon, Gurgaon",India,77.0349627,28.4582412,32.83,2.9,15.0,"BestWesternSkycityHotel,Sector15,Gurgaon,India"
447,Bisque Bakery,"Bakery,FastFood",Gurgaon,"Central Arcade, DLF Phase 2, Gurgaon, Gurgaon",India,77.0857204,28.4807592,6.57,3.9,415.0,"CentralArcade,DLFPhase2,Gurgaon,India"
448,Behrouz Biryani,Biryani,Gurgaon,"Central Plaza Mall, Golf Course Road, Gurgaon",India,77.1006623,28.4434069,7.88,3.4,36.0,"CentralPlazaMall,GolfCourseRoad,Gurgaon,India"
449,Domino's Pizza,"Pizza,FastFood",Gurgaon,"Central Plaza Mall, Golf Course Road, Gurgaon",India,77.1010066,28.442867100000004,9.19,3.4,104.0,"CentralPlazaMall,GolfCourseRoad,Gurgaon,India"
450,Giani,"IceCream,Desserts",Gurgaon,"Central Plaza Mall, Golf Course Road, Gurgaon",India,77.1009167,28.443037800000006,5.25,3.4,70.0,"CentralPlazaMall,GolfCourseRoad,Gurgaon,India"
451,PizzaVito,"Italian,Pizza,Lebanese",Gurgaon,"Central Plaza Mall, Golf Course Road, Gurgaon",India,77.1007369,28.443110200000003,11.82,3.3,218.0,"CentralPlazaMall,GolfCourseRoad,Gurgaon,India"
452,Shawarma House,Lebanese,Gurgaon,"Central Plaza Mall, Golf Course Road, Gurgaon",India,77.1010965,28.4426964,6.57,3.4,225.0,"CentralPlazaMall,GolfCourseRoad,Gurgaon,India"
453,Subway,"American,FastFood,Salad,HealthyFood",Gurgaon,"Central Plaza Mall, Golf Course Road, Gurgaon",India,77.1009167,28.443037800000006,6.57,2.5,150.0,"CentralPlazaMall,GolfCourseRoad,Gurgaon,India"
454,Asian Bistro,"Chinese,Thai,NorthIndian,Japanese",Gurgaon,"Central Plaza Mall, Golf Course Road, Gurgaon",India,77.1008268,28.4429395,21.01,3.8,184.0,"CentralPlazaMall,GolfCourseRoad,Gurgaon,India"
455,BBQ Factory,NorthIndian,Gurgaon,"Central Plaza Mall, Golf Course Road, Gurgaon",India,77.1009883,28.442717,18.39,3.9,146.0,"CentralPlazaMall,GolfCourseRoad,Gurgaon,India"
456,Faaso's,"NorthIndian,FastFood",Gurgaon,"Central Plaza Mall, Golf Course Road, Gurgaon",India,77.1005772,28.443403000000004,7.88,3.6,33.0,"CentralPlazaMall,GolfCourseRoad,Gurgaon,India"
457,Chaayos,"Cafe,Tea",Gurgaon,"Central Plaza Mall, Golf Course Road, Gurgaon",India,77.10078709999998,28.4431891,5.25,4.3,48.0,"CentralPlazaMall,GolfCourseRoad,Gurgaon,India"
458,Mosaic - Country Inn & Suites,"NorthIndian,Asian,Continental",Gurgaon,"Country Inn & Suites by Carlson, Gurgaon, Gurgaon",India,77.0676442,28.461987800000006,19.7,3.8,91.0,"CountryInnSuitesbyCarlson,Gurgaon,India"
459,60 ML - Country Inn & Suites by Carlson,FingerFood,Gurgaon,"Country Inn & Suites by Carlson, Sector 12, Gurgaon",India,77.03769109999998,28.468336,13.13,3.0,7.0,"CountryInnSuitesbyCarlson,Sector12,Gurgaon,India"
460,Mosaic - Country Inn & Suites by Carlson,"Continental,NorthIndian,Chinese",Gurgaon,"Country Inn & Suites by Carlson, Sector 12, Gurgaon",India,77.03778100000002,28.4684343,23.64,3.5,37.0,"CountryInnSuitesbyCarlson,Sector12,Gurgaon,India"
461,Big Shot Bar - Country Inn & Suites,"Chinese,Italian,NorthIndian",Gurgaon,"Country Inn & Suites By Carlson, Udyog Vihar, Gurgaon",India,77.0918351,28.509224600000003,28.89,3.5,32.0,"CountryInnSuitesByCarlson,UdyogVihar,Gurgaon,India"
462,Mosaic - Country Inn & Suites By Carlson,"NorthIndian,Chinese,Italian,Continental",Gurgaon,"Country Inn & Suites, Sohna Road, Gurgaon",India,77.0684986,28.3349418,17.07,3.4,19.0,"CountryInnSuites,SohnaRoad,Gurgaon,India"
463,Downtown Kitchen & Bar - Courtyard by Marriott,"Chinese,NorthIndian,Italian",Gurgaon,"Courtyard by Marriott, Sushant Lok, Gurgaon",India,77.08036700000002,28.460925,35.46,3.2,6.0,"CourtyardbyMarriott,SushantLok,Gurgaon,India"
464,Di Ghent Boulangerie,"Cafe,Belgian",Gurgaon,"Cross Point Mall, DLF Phase 4, Gurgaon",India,77.0835375,28.46836827,22.33,3.9,231.0,"CrossPointMall,DLFPhase4,Gurgaon,India"
465,Khyen Chyen,Kashmiri,Gurgaon,"Cross Point Mall, DLF Phase 4, Gurgaon",India,77.0832475,28.468374100000005,10.51,3.7,364.0,"CrossPointMall,DLFPhase4,Gurgaon,India"
466,The Pint Room,"FingerFood,Continental,Italian",Gurgaon,"Cross Point Mall, DLF Phase 4, Gurgaon",India,77.08302259999998,28.4683973,22.33,3.7,127.0,"CrossPointMall,DLFPhase4,Gurgaon,India"
467,Tughlaq,"NorthIndian,Mughlai,Chinese,Seafood",Gurgaon,"Cross Point Mall, DLF Phase 4, Gurgaon",India,77.08390966,28.46844136,13.13,3.5,351.0,"CrossPointMall,DLFPhase4,Gurgaon,India"
468,Big Wong XL,"Chinese,Thai,Sushi",Gurgaon,"Cross Point Mall, DLF Phase 4, Gurgaon",India,77.0834723,28.4681716,19.7,4.0,162.0,"CrossPointMall,DLFPhase4,Gurgaon,India"
469,Bunker,"Continental,NorthIndian,Chinese,Italian",Gurgaon,"Cross Point Mall, DLF Phase 4, Gurgaon",India,77.08311259999998,28.4682267,17.07,4.2,248.0,"CrossPointMall,DLFPhase4,Gurgaon,India"
470,Culture Cafe,"Mediterranean,Continental",Gurgaon,"Cross Point Mall, DLF Phase 4, Gurgaon",India,77.0837421,28.4681975,19.7,4.2,144.0,"CrossPointMall,DLFPhase4,Gurgaon,India"
471,Nowhere Terrace Brewpub Cafe,"Continental,European,Asian,NorthIndian,Chinese,Italian",Gurgaon,"Cross Point Mall, DLF Phase 4, Gurgaon",India,77.083048,28.468314000000003,21.01,4.1,214.0,"CrossPointMall,DLFPhase4,Gurgaon,India"
472,Cafe G - Crowne Plaza,"NorthIndian,Continental,Chinese",Gurgaon,"Crowne Plaza, Sector 29, Gurgaon",India,77.0600891,28.4684326,45.96,3.9,181.0,"CrownePlaza,Sector29,Gurgaon,India"
473,Wildfire - Crowne Plaza,SouthAmerican,Gurgaon,"Crowne Plaza, Sector 29, Gurgaon",India,77.0599093,28.4684152,65.66,3.7,131.0,"CrownePlaza,Sector29,Gurgaon,India"
474,Isabella,"NorthIndian,Mughlai,Chinese",Gurgaon,"Cyber Greens, DLF Cyber City, Gurgaon",India,77.0928243,28.4937229,9.19,2.8,191.0,"CyberGreens,DLFCyberCity,Gurgaon,India"
475,Fatburger,"American,Mexican",Gurgaon,"Cyber Hub, DLF Cyber City, Gurgaon",India,77.0882416,28.4947571,13.13,3.3,793.0,"CyberHub,DLFCyberCity,Gurgaon,India"
476,Burma Burma,"Asian,Burmese",Gurgaon,"Cyber Hub, DLF Cyber City, Gurgaon",India,77.0887329,28.4946295,19.7,4.6,563.0,"CyberHub,DLFCyberCity,Gurgaon,India"
477,Pier 38,"Persian,Arabian,Lebanese,NorthIndian",Gurgaon,"Cyber Hub, DLF Cyber City, Gurgaon",India,77.0886429,28.4950691,15.76,4.6,177.0,"CyberHub,DLFCyberCity,Gurgaon,India"
478,Yum Yum Cha,"Chinese,Japanese,Sushi",Gurgaon,"Cyber Hub, DLF Cyber City, Gurgaon",India,77.0885987,28.4950762,23.64,4.5,407.0,"CyberHub,DLFCyberCity,Gurgaon,India"
479,Amici Cafe,"Cafe,Italian,Pizza",Gurgaon,"Cyber Hub, DLF Cyber City, Gurgaon",India,77.08897809999998,28.4955391,15.76,3.7,647.0,"CyberHub,DLFCyberCity,Gurgaon,India"
480,Au Bon Pain,"Cafe,Bakery",Gurgaon,"Cyber Hub, DLF Cyber City, Gurgaon",India,77.08850799999998,28.494832,7.88,3.7,503.0,"CyberHub,DLFCyberCity,Gurgaon,India"
481,California Pizza Kitchen,"Pizza,Italian",Gurgaon,"Cyber Hub, DLF Cyber City, Gurgaon",India,77.08868790000002,28.4952975,32.83,3.7,980.0,"CyberHub,DLFCyberCity,Gurgaon,India"
482,Chai Point,"Tea,FastFood",Gurgaon,"Cyber Hub, DLF Cyber City, Gurgaon",India,77.08886770000002,28.4952251,2.63,3.7,544.0,"CyberHub,DLFCyberCity,Gurgaon,India"
483,Cherry Comet,"IceCream,Desserts",Gurgaon,"Cyber Hub, DLF Cyber City, Gurgaon",India,77.08886770000002,28.4953148,5.25,3.6,455.0,"CyberHub,DLFCyberCity,Gurgaon,India"
484,Circus,"NorthIndian,Chinese,Italian",Gurgaon,"Cyber Hub, DLF Cyber City, Gurgaon",India,77.08886770000002,28.495763,16.42,3.9,230.0,"CyberHub,DLFCyberCity,Gurgaon,India"
485,Dunkin' Donuts,"Burger,Desserts,FastFood",Gurgaon,"Cyber Hub, DLF Cyber City, Gurgaon",India,77.0887329,28.4951674,7.88,3.8,701.0,"CyberHub,DLFCyberCity,Gurgaon,India"
486,Holy Smoke,"Steak,American",Gurgaon,"Cyber Hub, DLF Cyber City, Gurgaon",India,77.0883732,28.4947742,23.64,3.6,313.0,"CyberHub,DLFCyberCity,Gurgaon,India"
487,Italiano,Italian,Gurgaon,"Cyber Hub, DLF Cyber City, Gurgaon",India,77.088598,28.495109600000006,19.7,3.6,625.0,"CyberHub,DLFCyberCity,Gurgaon,India"
488,Krispy Kreme,"Desserts,Beverages",Gurgaon,"Cyber Hub, DLF Cyber City, Gurgaon",India,77.08868790000002,28.4952079,4.6,3.9,425.0,"CyberHub,DLFCyberCity,Gurgaon,India"
489,Not Just Paranthas,NorthIndian,Gurgaon,"Cyber Hub, DLF Cyber City, Gurgaon",India,77.088598,28.495109600000006,14.45,3.6,734.0,"CyberHub,DLFCyberCity,Gurgaon,India"
490,Oh! Calcutta,"Bengali,Seafood",Gurgaon,"Cyber Hub, DLF Cyber City, Gurgaon",India,77.08868790000002,28.4952079,22.33,3.8,706.0,"CyberHub,DLFCyberCity,Gurgaon,India"
491,Olive Bistro,"Mediterranean,Italian,European",Gurgaon,"Cyber Hub, DLF Cyber City, Gurgaon",India,77.0878786,28.494592200000003,26.26,3.9,1490.0,"CyberHub,DLFCyberCity,Gurgaon,India"
492,Pita Pit,"HealthyFood,Salad",Gurgaon,"Cyber Hub, DLF Cyber City, Gurgaon",India,77.0886429,28.4950691,7.88,3.9,870.0,"CyberHub,DLFCyberCity,Gurgaon,India"
493,Raasta,"Continental,Italian",Gurgaon,"Cyber Hub, DLF Cyber City, Gurgaon",India,77.0883732,28.495312100000003,26.26,3.8,1065.0,"CyberHub,DLFCyberCity,Gurgaon,India"
494,Red Mango,"Cafe,Desserts",Gurgaon,"Cyber Hub, DLF Cyber City, Gurgaon",India,77.08868790000002,28.4952079,9.19,3.6,365.0,"CyberHub,DLFCyberCity,Gurgaon,India"
495,Rred Hot Asian Bistro,"Chinese,Japanese,Thai,Asian",Gurgaon,"Cyber Hub, DLF Cyber City, Gurgaon",India,77.08868790000002,28.49538710000001,18.39,3.5,384.0,"CyberHub,DLFCyberCity,Gurgaon,India"
496,Smaaash,"NorthIndian,Thai,Continental",Gurgaon,"Cyber Hub, DLF Cyber City, Gurgaon",India,77.0889127,28.4950054,18.39,3.9,622.0,"CyberHub,DLFCyberCity,Gurgaon,India"
497,Starbucks,Cafe,Gurgaon,"Cyber Hub, DLF Cyber City, Gurgaon",India,77.08919820000001,28.4956457,9.19,3.9,560.0,"CyberHub,DLFCyberCity,Gurgaon,India"
498,Sutra Gastropub,"Mediterranean,European,American,NorthIndian",Gurgaon,"Cyber Hub, DLF Cyber City, Gurgaon",India,77.0883282,28.4948147,30.2,3.8,1046.0,"CyberHub,DLFCyberCity,Gurgaon,India"
499,Taco Bell,"Mexican,FastFood",Gurgaon,"Cyber Hub, DLF Cyber City, Gurgaon",India,77.0883113,28.4942639,7.22,3.8,176.0,"CyberHub,DLFCyberCity,Gurgaon,India"
500,The People & Co.,"Continental,Italian",Gurgaon,"Cyber Hub, DLF Cyber City, Gurgaon",India,77.08877779999997,28.494947600000003,22.33,3.7,173.0,"CyberHub,DLFCyberCity,Gurgaon,India"
501,Theobroma,"Bakery,Cafe",Gurgaon,"Cyber Hub, DLF Cyber City, Gurgaon",India,77.08868790000002,28.4947597,7.88,3.8,227.0,"CyberHub,DLFCyberCity,Gurgaon,India"
502,Wendy's,"Burger,FastFood",Gurgaon,"Cyber Hub, DLF Cyber City, Gurgaon",India,77.0875189,28.4949162,5.25,3.9,296.0,"CyberHub,DLFCyberCity,Gurgaon,India"
503,The Wine Company,"Italian,European",Gurgaon,"Cyber Hub, DLF Cyber City, Gurgaon",India,77.08904759999999,28.4962285,26.26,2.4,2412.0,"CyberHub,DLFCyberCity,Gurgaon,India"
504,Cafe Delhi Heights,"Continental,American,Italian,Seafood,NorthIndian,Cafe",Gurgaon,"Cyber Hub, DLF Cyber City, Gurgaon",India,77.08868790000002,28.4952079,26.26,4.0,1840.0,"CyberHub,DLFCyberCity,Gurgaon,India"
505,Cyber Hub Social,"Continental,American,Asian,NorthIndian",Gurgaon,"Cyber Hub, DLF Cyber City, Gurgaon",India,77.08850799999998,28.493935600000004,19.7,4.3,716.0,"CyberHub,DLFCyberCity,Gurgaon,India"
506,Delifrance - The France Cafe Bakery,"Cafe,Bakery,Desserts",Gurgaon,"Cyber Hub, DLF Cyber City, Gurgaon",India,77.08856095,28.49427139,10.51,4.0,199.0,"CyberHub,DLFCyberCity,Gurgaon,India"
507,Dhaba By Claridges,NorthIndian,Gurgaon,"Cyber Hub, DLF Cyber City, Gurgaon",India,77.08868790000002,28.49538710000001,26.26,4.0,1658.0,"CyberHub,DLFCyberCity,Gurgaon,India"
508,Farzi Cafe,ModernIndian,Gurgaon,"Cyber Hub, DLF Cyber City, Gurgaon",India,77.08868790000002,28.4952079,28.89,4.3,4385.0,"CyberHub,DLFCyberCity,Gurgaon,India"
509,Hard Rock Cafe,"Mediterranean,Mexican,NorthIndian,American",Gurgaon,"Cyber Hub, DLF Cyber City, Gurgaon",India,77.08850799999998,28.4949217,32.83,4.1,1949.0,"CyberHub,DLFCyberCity,Gurgaon,India"
510,Instapizza,"Pizza,FastFood",Gurgaon,"Cyber Hub, DLF Cyber City, Gurgaon",India,77.08823829999999,28.494089,11.82,4.0,219.0,"CyberHub,DLFCyberCity,Gurgaon,India"
511,Made In Punjab,"NorthIndian,Mughlai",Gurgaon,"Cyber Hub, DLF Cyber City, Gurgaon",India,77.088598,28.495109600000006,19.7,4.0,1595.0,"CyberHub,DLFCyberCity,Gurgaon,India"
512,Nando's,"Portuguese,African",Gurgaon,"Cyber Hub, DLF Cyber City, Gurgaon",India,77.08886770000002,28.4954941,15.76,4.0,1730.0,"CyberHub,DLFCyberCity,Gurgaon,India"
513,Quaff,"American,Italian,Chinese",Gurgaon,"Cyber Hub, DLF Cyber City, Gurgaon",India,77.0880651,28.4944224,22.98,4.1,353.0,"CyberHub,DLFCyberCity,Gurgaon,India"
514,SodaBottleOpenerWala,"Parsi,Iranian",Gurgaon,"Cyber Hub, DLF Cyber City, Gurgaon",India,77.08850799999998,28.494832,17.07,4.0,2843.0,"CyberHub,DLFCyberCity,Gurgaon,India"
515,The Grill Mill,"NorthIndian,Continental,Asian",Gurgaon,"Cyber Hub, DLF Cyber City, Gurgaon",India,77.0884689,28.4940704,19.7,4.0,209.0,"CyberHub,DLFCyberCity,Gurgaon,India"
516,Knight Rider,"NorthIndian,Continental",Gurgaon,"DLF Cyber City, Gurgaon",India,77.0933407,28.4877882,15.76,3.1,185.0,"DLFCyberCity,Gurgaon,India"
517,Chaayos,"Cafe,Tea",Gurgaon,"DLF Cyber City, Gurgaon",India,77.09210490000002,28.4897992,5.25,3.8,393.0,"DLFCyberCity,Gurgaon,India"
518,Nooba,Chinese,Gurgaon,"DLF Cyber City, Gurgaon",India,77.0875639,28.4942482,19.7,3.8,333.0,"DLFCyberCity,Gurgaon,India"
519,Domino's Pizza,"Pizza,FastFood",Gurgaon,"DLF Cyber City, Gurgaon",India,77.08904759999999,28.494525300000006,9.19,2.4,125.0,"DLFCyberCity,Gurgaon,India"
520,Indigo Delicatessen,"European,Continental",Gurgaon,"DLF Cyber City, Gurgaon",India,77.0884181,28.4940166,23.64,4.2,205.0,"DLFCyberCity,Gurgaon,India"
521,Escape Terrace Bar Kitchen,FingerFood,Gurgaon,"DLF Galleria, DLF Phase 4, Gurgaon",India,77.08221329999998,28.4671541,22.33,3.4,294.0,"DLFGalleria,DLFPhase4,Gurgaon,India"
522,Kwaliti,"NorthIndian,Chinese,FastFood",Gurgaon,"DLF Galleria, DLF Phase 4, Gurgaon",India,77.0817637,28.4672902,9.19,3.3,129.0,"DLFGalleria,DLFPhase4,Gurgaon,India"
523,Subway,"American,FastFood,Salad,HealthyFood",Gurgaon,"DLF Galleria, DLF Phase 4, Gurgaon",India,77.08140390000001,28.4676142,6.57,2.5,125.0,"DLFGalleria,DLFPhase4,Gurgaon,India"
524,Burger Point,"Burger,FastFood",Gurgaon,"DLF Galleria, DLF Phase 4, Gurgaon",India,77.0823032,28.4672524,3.94,3.8,74.0,"DLFGalleria,DLFPhase4,Gurgaon,India"
525,Chaat Chowk,StreetFood,Gurgaon,"DLF Galleria, DLF Phase 4, Gurgaon",India,77.0821234,28.4670558,4.6,3.7,217.0,"DLFGalleria,DLFPhase4,Gurgaon,India"
526,Chef Style,"NorthIndian,Mughlai",Gurgaon,"DLF Galleria, DLF Phase 4, Gurgaon",India,77.0817637,28.4673798,9.19,3.8,239.0,"DLFGalleria,DLFPhase4,Gurgaon,India"
527,Delhicacy,"StreetFood,FastFood,NorthIndian",Gurgaon,"DLF Galleria, DLF Phase 4, Gurgaon",India,77.0823032,28.4674317,4.6,3.8,317.0,"DLFGalleria,DLFPhase4,Gurgaon,India"
528,Dimsum & Co.,Chinese,Gurgaon,"DLF Galleria, DLF Phase 4, Gurgaon",India,77.0818119,28.467466100000006,8.54,3.9,136.0,"DLFGalleria,DLFPhase4,Gurgaon,India"
529,Instapizza,"Pizza,FastFood",Gurgaon,"DLF Galleria, DLF Phase 4, Gurgaon",India,77.0821234,28.467504,11.82,3.6,426.0,"DLFGalleria,DLFPhase4,Gurgaon,India"
530,L'Opera,"Bakery,Desserts,FastFood",Gurgaon,"DLF Galleria, DLF Phase 4, Gurgaon",India,77.08243809999998,28.4671309,5.25,3.8,196.0,"DLFGalleria,DLFPhase4,Gurgaon,India"
531,Lazeez Food,"Mughlai,NorthIndian",Gurgaon,"DLF Galleria, DLF Phase 4, Gurgaon",India,77.081314,28.467067600000004,10.51,3.5,173.0,"DLFGalleria,DLFPhase4,Gurgaon,India"
532,Le Marche Sugar & Spice Cafe,"Cafe,Italian,FastFood",Gurgaon,"DLF Galleria, DLF Phase 4, Gurgaon",India,77.08122409999999,28.467507300000005,9.19,3.5,52.0,"DLFGalleria,DLFPhase4,Gurgaon,India"
533,The Breakfast Club,"Continental,NorthIndian",Gurgaon,"DLF Galleria, DLF Phase 4, Gurgaon",India,77.08194350000002,28.4671282,6.57,3.5,189.0,"DLFGalleria,DLFPhase4,Gurgaon,India"
534,Sugar & Spice - Le Marche,"Bakery,FastFood",Gurgaon,"DLF Galleria, DLF Phase 4, Gurgaon",India,77.08122409999999,28.4671487,10.51,2.4,88.0,"DLFGalleria,DLFPhase4,Gurgaon,India"
535,Crudo Juicery,"Beverages,Salad",Gurgaon,"DLF Galleria, DLF Phase 4, Gurgaon",India,77.08194350000002,28.467486800000003,5.25,4.3,154.0,"DLFGalleria,DLFPhase4,Gurgaon,India"
536,Fork with Stick,Chinese,Gurgaon,"DLF Galleria, DLF Phase 4, Gurgaon",India,77.0823032,28.4674317,10.51,4.0,169.0,"DLFGalleria,DLFPhase4,Gurgaon,India"
537,Uptown Fresh Beer Cafe,"FingerFood,NorthIndian,Italian,European,Continental",Gurgaon,"DLF Galleria, DLF Phase 4, Gurgaon",India,77.08122409999999,28.467507300000005,32.83,4.1,230.0,"DLFGalleria,DLFPhase4,Gurgaon,India"
538,Barista,Cafe,Gurgaon,"DLF Mega Mall, DLF Phase 1, Gurgaon",India,77.09313545,28.47582155,8.54,3.2,18.0,"DLFMegaMall,DLFPhase1,Gurgaon,India"
539,Cafe Coffee Day,Cafe,Gurgaon,"DLF Mega Mall, DLF Phase 1, Gurgaon",India,77.09359512,28.47548941,5.91,2.6,27.0,"DLFMegaMall,DLFPhase1,Gurgaon,India"
540,Domino's Pizza,"Pizza,FastFood",Gurgaon,"DLF Mega Mall, DLF Phase 1, Gurgaon",India,77.09308315,28.47577587,9.19,2.8,30.0,"DLFMegaMall,DLFPhase1,Gurgaon,India"
541,Italiano,Italian,Gurgaon,"DLF Mega Mall, DLF Phase 1, Gurgaon",India,77.09323503,28.47573225,19.7,3.0,49.0,"DLFMegaMall,DLFPhase1,Gurgaon,India"
542,McDonald's,"FastFood,Burger",Gurgaon,"DLF Mega Mall, DLF Phase 1, Gurgaon",India,77.09302582,28.47586163,6.57,2.6,30.0,"DLFMegaMall,DLFPhase1,Gurgaon,India"
543,Parantha Gurus,NorthIndian,Gurgaon,"DLF Mega Mall, DLF Phase 1, Gurgaon",India,77.09312875,28.47574493,6.57,3.3,27.0,"DLFMegaMall,DLFPhase1,Gurgaon,India"
544,Pizza Hut Delivery,"Italian,Pizza,FastFood",Gurgaon,"DLF Mega Mall, DLF Phase 1, Gurgaon",India,77.09333964,28.47626303,10.51,2.8,29.0,"DLFMegaMall,DLFPhase1,Gurgaon,India"
545,Sibang Bakery,"Bakery,Desserts,FastFood",Gurgaon,"DLF Mega Mall, DLF Phase 1, Gurgaon",India,77.09336612,28.47581065,3.94,3.3,13.0,"DLFMegaMall,DLFPhase1,Gurgaon,India"
546,Sonya Bakery Cafe,"Bakery,Desserts,Beverages",Gurgaon,"DLF Mega Mall, DLF Phase 1, Gurgaon",India,77.093094,28.4759094,4.6,3.3,20.0,"DLFMegaMall,DLFPhase1,Gurgaon,India"
547,Subway,"American,FastFood,Salad,HealthyFood",Gurgaon,"DLF Mega Mall, DLF Phase 1, Gurgaon",India,77.09308684,28.47568922,6.57,3.1,46.0,"DLFMegaMall,DLFPhase1,Gurgaon,India"
548,Viva Hyderabad,"Biryani,NorthIndian",Gurgaon,"DLF Mega Mall, DLF Phase 1, Gurgaon",India,77.09311534,28.4756627,7.88,2.5,69.0,"DLFMegaMall,DLFPhase1,Gurgaon,India"
549,7 Barrel Brew Pub,"NorthIndian,Continental,Chinese,Japanese,Italian,Thai",Gurgaon,"DLF Mega Mall, DLF Phase 1, Gurgaon",India,77.09335439,28.476192600000005,26.26,3.9,490.0,"DLFMegaMall,DLFPhase1,Gurgaon,India"
550,Wai Yu Mun Ching,"Chinese,Thai",Gurgaon,"DLF Mega Mall, DLF Phase 1, Gurgaon",India,77.09319044,28.47567184,10.51,3.5,112.0,"DLFMegaMall,DLFPhase1,Gurgaon,India"
551,KFC,"American,FastFood,Burger",Gurgaon,"DLF Mega Mall, DLF Phase 1, Gurgaon",India,77.09351432,28.47650794,6.57,2.2,73.0,"DLFMegaMall,DLFPhase1,Gurgaon,India"
552,Burmese Kitchen Plus,"Burmese,Chinese,Thai",Gurgaon,"DLF Phase 1, Gurgaon",India,77.1002873,28.4778552,10.51,3.4,65.0,"DLFPhase1,Gurgaon,India"
553,Drinks Come True,"Beverages,Juices",Gurgaon,"DLF Phase 1, Gurgaon",India,77.09938819999998,28.4693415,1.97,3.1,9.0,"DLFPhase1,Gurgaon,India"
554,Eat All Nite,"NorthIndian,Chinese,FastFood",Gurgaon,"DLF Phase 1, Gurgaon",India,77.09358859999998,28.4726847,10.51,3.2,184.0,"DLFPhase1,Gurgaon,India"
555,Frontier,Bakery,Gurgaon,"DLF Phase 1, Gurgaon",India,77.0997478,28.4660588,2.63,2.9,4.0,"DLFPhase1,Gurgaon,India"
556,GenY Cuisines,"Chinese,Mexican,FastFood,Continental",Gurgaon,"DLF Phase 1, Gurgaon",India,77.09228470000002,28.4733215,3.28,3.0,4.0,"DLFPhase1,Gurgaon,India"
557,K Raga's,"NorthIndian,Mughlai",Gurgaon,"DLF Phase 1, Gurgaon",India,77.0923747,28.4733301,7.88,2.9,5.0,"DLFPhase1,Gurgaon,India"
558,Kangri,Kashmiri,Gurgaon,"DLF Phase 1, Gurgaon",India,77.07935278,28.46121389,9.85,3.4,84.0,"DLFPhase1,Gurgaon,India"
559,Makhmali Kebabs,Mughlai,Gurgaon,"DLF Phase 1, Gurgaon",India,77.0992983,28.4661053,7.22,3.2,10.0,"DLFPhase1,Gurgaon,India"
560,Masala Ville,"NorthIndian,Mughlai",Gurgaon,"DLF Phase 1, Gurgaon",India,77.0984902,28.471636,8.54,3.2,15.0,"DLFPhase1,Gurgaon,India"
561,Night Food Xprs,"Chinese,NorthIndian",Gurgaon,"DLF Phase 1, Gurgaon",India,77.09938819999998,28.4693415,8.54,3.1,12.0,"DLFPhase1,Gurgaon,India"
562,Roti Boti,"NorthIndian,Mughlai,FastFood",Gurgaon,"DLF Phase 1, Gurgaon",India,77.09285600000003,28.481301,9.19,2.9,35.0,"DLFPhase1,Gurgaon,India"
563,Sama Chicken Biryani,"Biryani,NorthIndian",Gurgaon,"DLF Phase 1, Gurgaon",India,77.0948286,28.48187686,2.63,2.9,4.0,"DLFPhase1,Gurgaon,India"
564,Subway,"American,FastFood,Salad,HealthyFood",Gurgaon,"DLF Phase 1, Gurgaon",India,77.0997478,28.4657898,6.57,2.8,54.0,"DLFPhase1,Gurgaon,India"
565,The Rolling Pin Bakery,Bakery,Gurgaon,"DLF Phase 1, Gurgaon",India,77.0983092,28.4679828,6.57,3.1,10.0,"DLFPhase1,Gurgaon,India"
566,Weird Time Food,"Continental,FastFood",Gurgaon,"DLF Phase 1, Gurgaon",India,77.074163,28.477689,7.88,3.1,7.0,"DLFPhase1,Gurgaon,India"
567,Twigly,"Continental,Italian,Pizza,Asian",Gurgaon,"DLF Phase 1, Gurgaon",India,77.0923421,28.4803156,6.57,4.6,395.0,"DLFPhase1,Gurgaon,India"
568,Asian Haus,"Chinese,Thai,Asian,Malaysian,Vietnamese,Japanese",Gurgaon,"DLF Phase 1, Gurgaon",India,77.1003687,28.4778418,19.7,3.9,360.0,"DLFPhase1,Gurgaon,India"
569,Beyond Breads,"Bakery,Desserts",Gurgaon,"DLF Phase 1, Gurgaon",India,77.09228470000002,28.4733215,2.63,3.8,326.0,"DLFPhase1,Gurgaon,India"
570,Biryani By Kilo,"Biryani,Mughlai",Gurgaon,"DLF Phase 1, Gurgaon",India,77.1002873,28.4780345,9.19,3.9,403.0,"DLFPhase1,Gurgaon,India"
571,Captain Grub,"American,FastFood",Gurgaon,"DLF Phase 1, Gurgaon",India,77.0997478,28.4660588,13.13,3.8,447.0,"DLFPhase1,Gurgaon,India"
572,Pita Pit,"HealthyFood,Salad",Gurgaon,"DLF Phase 1, Gurgaon",India,77.1002873,28.4778552,7.88,3.5,56.0,"DLFPhase1,Gurgaon,India"
573,Rawleaf,"HealthyFood,Salad",Gurgaon,"DLF Phase 1, Gurgaon",India,77.0957016,28.4694359,9.19,3.6,38.0,"DLFPhase1,Gurgaon,India"
574,Sushi Haus,"Japanese,Sushi",Gurgaon,"DLF Phase 1, Gurgaon",India,77.1003772,28.477863800000005,17.07,3.8,124.0,"DLFPhase1,Gurgaon,India"
575,Angrezee Choupal,"NorthIndian,Chinese,Italian",Gurgaon,"DLF Phase 2, Gurgaon",India,77.0860801,28.4827659,6.57,3.8,299.0,"DLFPhase2,Gurgaon,India"
576,A 1 - Snacks and food corner,"NorthIndian,Chinese,FastFood",Gurgaon,"DLF Phase 3, Gurgaon",India,77.09420759999998,28.4899921,4.6,2.5,16.0,"DLFPhase3,Gurgaon,India"
577,Anandum,SouthIndian,Gurgaon,"DLF Phase 3, Gurgaon",India,77.1034343,28.486136,5.25,3.2,13.0,"DLFPhase3,Gurgaon,India"
578,Apni Rasoi,"NorthIndian,Chinese",Gurgaon,"DLF Phase 3, Gurgaon",India,77.0936335,28.4912907,5.25,3.0,160.0,"DLFPhase3,Gurgaon,India"
579,Banke Bihari Bhojanalay,"Mithai,StreetFood,NorthIndian",Gurgaon,"DLF Phase 3, Gurgaon",India,77.0935436,28.4934335,2.63,2.6,36.0,"DLFPhase3,Gurgaon,India"
580,Biryani 365,Mughlai,Gurgaon,"DLF Phase 3, Gurgaon",India,77.0957016,28.4948958,9.19,3.2,17.0,"DLFPhase3,Gurgaon,India"
581,Bro's Kitchenette,"FastFood,StreetFood,Beverages",Gurgaon,"DLF Phase 3, Gurgaon",India,77.09530905,28.48826511,4.6,3.3,11.0,"DLFPhase3,Gurgaon,India"
582,Cafe Coffee Day,Cafe,Gurgaon,"DLF Phase 3, Gurgaon",India,77.09327124,28.49457813,5.91,3.1,9.0,"DLFPhase3,Gurgaon,India"
583,Cafe Coffee Day,Cafe,Gurgaon,"DLF Phase 3, Gurgaon",India,77.09158514,28.49034965,5.91,3.2,26.0,"DLFPhase3,Gurgaon,India"
584,Cafe Du Rendezvous,"Cafe,StreetFood",Gurgaon,"DLF Phase 3, Gurgaon",India,77.0998522,28.4947415,5.25,3.2,21.0,"DLFPhase3,Gurgaon,India"
585,Cake 24x7,Bakery,Gurgaon,"DLF Phase 3, Gurgaon",India,77.10383890000001,28.4874747,7.88,3.3,25.0,"DLFPhase3,Gurgaon,India"
586,Cake On Wheels,"Bakery,Desserts,FastFood",Gurgaon,"DLF Phase 3, Gurgaon",India,77.1047829,28.4874309,2.63,2.8,18.0,"DLFPhase3,Gurgaon,India"
587,Cake Point,"Bakery,Desserts",Gurgaon,"DLF Phase 3, Gurgaon",India,77.0939033,28.4902409,7.88,2.9,7.0,"DLFPhase3,Gurgaon,India"
588,Cake Point,"Bakery,Desserts",Gurgaon,"DLF Phase 3, Gurgaon",India,77.10383890000001,28.487654,7.88,3.0,35.0,"DLFPhase3,Gurgaon,India"
589,Cakes Degree,Bakery,Gurgaon,"DLF Phase 3, Gurgaon",India,77.094263,28.492337300000006,3.94,3.4,18.0,"DLFPhase3,Gurgaon,India"
590,Chateau Garlic,"NorthIndian,Chinese",Gurgaon,"DLF Phase 3, Gurgaon",India,77.10263249,28.48750366,9.19,3.0,14.0,"DLFPhase3,Gurgaon,India"
591,Chennai Express,"SouthIndian,NorthIndian",Gurgaon,"DLF Phase 3, Gurgaon",India,77.0939932,28.493118100000004,3.94,3.2,15.0,"DLFPhase3,Gurgaon,India"
592,Crust N Cakes,Bakery,Gurgaon,"DLF Phase 3, Gurgaon",India,77.09228470000002,28.491161100000006,7.22,3.4,18.0,"DLFPhase3,Gurgaon,India"
593,Dabba Meat,NorthIndian,Gurgaon,"DLF Phase 3, Gurgaon",India,77.09303220000002,28.4906544,7.22,3.4,29.0,"DLFPhase3,Gurgaon,India"
594,Deepak Rasoi,"NorthIndian,Chinese",Gurgaon,"DLF Phase 3, Gurgaon",India,77.09516440000002,28.4897671,5.91,2.7,22.0,"DLFPhase3,Gurgaon,India"
595,Foodaucity - Bum Bum Bholey Ke Chole Bhature,StreetFood,Gurgaon,"DLF Phase 3, Gurgaon",India,77.0937234,28.4938093,3.94,3.3,14.0,"DLFPhase3,Gurgaon,India"
596,Foodies Nation,"Chinese,NorthIndian",Gurgaon,"DLF Phase 3, Gurgaon",India,77.07154752788786,28.466910860682212,3.94,3.4,19.0,"DLFPhase3,Gurgaon,India"
597,Goli Vada Pav No. 1,StreetFood,Gurgaon,"DLF Phase 3, Gurgaon",India,77.0934537,28.493514500000003,1.97,3.1,83.0,"DLFPhase3,Gurgaon,India"
598,Grandma's Kitchen,"NorthIndian,SouthIndian",Gurgaon,"DLF Phase 3, Gurgaon",India,77.0936335,28.49147,5.25,2.5,20.0,"DLFPhase3,Gurgaon,India"
599,Gurgaon Hights,NorthIndian,Gurgaon,"DLF Phase 3, Gurgaon",India,77.09367900000002,28.491789500000007,5.25,2.5,19.0,"DLFPhase3,Gurgaon,India"
600,Idliss,"SouthIndian,NorthIndian,Chinese",Gurgaon,"DLF Phase 3, Gurgaon",India,77.0949823,28.4933028,5.25,3.4,359.0,"DLFPhase3,Gurgaon,India"
601,Indian Home Food,"NorthIndian,Chinese",Gurgaon,"DLF Phase 3, Gurgaon",India,77.0934537,28.4911838,7.88,2.6,51.0,"DLFPhase3,Gurgaon,India"
602,Jetha Lal Ka Dhabha,"NorthIndian,Chinese",Gurgaon,"DLF Phase 3, Gurgaon",India,77.09503077,28.49332817,5.25,3.1,53.0,"DLFPhase3,Gurgaon,India"
603,Kusum Rolls,"FastFood,Chinese",Gurgaon,"DLF Phase 3, Gurgaon",India,77.092692,28.490744300000006,4.6,3.1,71.0,"DLFPhase3,Gurgaon,India"
604,Megha Vaishno Dhaba,NorthIndian,Gurgaon,"DLF Phase 3, Gurgaon",India,77.09523320000002,28.4949836,3.94,3.1,33.0,"DLFPhase3,Gurgaon,India"
605,Nikhil Food Point,"Chinese,NorthIndian",Gurgaon,"DLF Phase 3, Gurgaon",India,77.0947642,28.4899703,2.63,2.7,19.0,"DLFPhase3,Gurgaon,India"
606,Plan B,"NorthIndian,Chinese,Continental",Gurgaon,"DLF Phase 3, Gurgaon",India,77.0962564,28.4846488,13.13,3.4,132.0,"DLFPhase3,Gurgaon,India"
607,Punjabi Zaika,"NorthIndian,Mughlai,Chinese",Gurgaon,"DLF Phase 3, Gurgaon",India,77.1048728,28.4872602,6.57,3.2,74.0,"DLFPhase3,Gurgaon,India"
608,Rasoi,"NorthIndian,Chinese",Gurgaon,"DLF Phase 3, Gurgaon",India,77.1046906,28.487522,6.57,3.0,6.0,"DLFPhase3,Gurgaon,India"
609,Roll's Royce,"FastFood,NorthIndian",Gurgaon,"DLF Phase 3, Gurgaon",India,77.0938134,28.4934594,2.63,3.2,42.0,"DLFPhase3,Gurgaon,India"
610,Shree Bikaner Misthan Bhandar,"StreetFood,Mithai",Gurgaon,"DLF Phase 3, Gurgaon",India,77.09412809999998,28.4921002,1.31,3.1,29.0,"DLFPhase3,Gurgaon,India"
611,Smokey Pan,"NorthIndian,Greek,Mughlai",Gurgaon,"DLF Phase 3, Gurgaon",India,77.0945327,28.4899428,3.94,3.2,14.0,"DLFPhase3,Gurgaon,India"
612,Surprise O Meal,"Continental,NorthIndian,Chinese",Gurgaon,"DLF Phase 3, Gurgaon",India,77.0935436,28.4911924,7.22,3.4,35.0,"DLFPhase3,Gurgaon,India"
613,Tandoor on The Way,FastFood,Gurgaon,"DLF Phase 3, Gurgaon",India,77.0935436,28.4931646,3.94,3.2,45.0,"DLFPhase3,Gurgaon,India"
614,Tawa N Tandoor,"NorthIndian,Mughlai,Chinese",Gurgaon,"DLF Phase 3, Gurgaon",India,77.0944877,28.4928519,7.88,2.7,51.0,"DLFPhase3,Gurgaon,India"
615,The Paradise Biryani,"Biryani,NorthIndian",Gurgaon,"DLF Phase 3, Gurgaon",India,77.0994974,28.4942093,9.19,2.9,22.0,"DLFPhase3,Gurgaon,India"
616,The Royal,"FastFood,Beverages",Gurgaon,"DLF Phase 3, Gurgaon",India,77.09340870000003,28.4936446,7.22,3.3,15.0,"DLFPhase3,Gurgaon,India"
617,Theka Desi Khaana,"NorthIndian,Chinese",Gurgaon,"DLF Phase 3, Gurgaon",India,77.0948924,28.4932941,4.6,3.0,12.0,"DLFPhase3,Gurgaon,India"
618,Tobasco Kitchen,"FastFood,Pizza",Gurgaon,"DLF Phase 3, Gurgaon",India,77.0946676,28.4930484,6.57,3.2,38.0,"DLFPhase3,Gurgaon,India"
619,Tpot,"FastFood,Beverages",Gurgaon,"DLF Phase 3, Gurgaon",India,77.0935436,28.4934335,5.25,3.2,15.0,"DLFPhase3,Gurgaon,India"
620,Uncle's Cafe,"NorthIndian,Biryani,FastFood,Chinese",Gurgaon,"DLF Phase 3, Gurgaon",India,77.094263,28.4900962,4.6,2.7,23.0,"DLFPhase3,Gurgaon,India"
621,Welcome Cafeteria,"NorthIndian,Mughlai",Gurgaon,"DLF Phase 3, Gurgaon",India,77.0940363,28.4931115,7.88,3.3,23.0,"DLFPhase3,Gurgaon,India"
622,Yo Yo China Town,"Chinese,NorthIndian,SouthIndian",Gurgaon,"DLF Phase 3, Gurgaon",India,77.093805,28.49330872,5.25,2.8,31.0,"DLFPhase3,Gurgaon,India"
623,Caterspoint,"Mexican,American,HealthyFood",Gurgaon,"DLF Phase 3, Gurgaon",India,77.10397370000003,28.4872636,6.57,4.9,223.0,"DLFPhase3,Gurgaon,India"
624,Bake-a-boo,Bakery,Gurgaon,"DLF Phase 3, Gurgaon",India,77.09623341,28.49025712,2.63,3.7,55.0,"DLFPhase3,Gurgaon,India"
625,Burger Hut,"Burger,FastFood,Chinese",Gurgaon,"DLF Phase 3, Gurgaon",India,77.094263,28.492337300000006,3.94,3.6,319.0,"DLFPhase3,Gurgaon,India"
626,China Gatherings,"Chinese,Thai",Gurgaon,"DLF Phase 3, Gurgaon",India,77.0939033,28.4902409,7.22,3.5,46.0,"DLFPhase3,Gurgaon,India"
627,Crazy Bhukkhad,"NorthIndian,Chinese",Gurgaon,"DLF Phase 3, Gurgaon",India,77.0924646,28.4896545,5.25,3.9,54.0,"DLFPhase3,Gurgaon,India"
628,Deez Biryani & Kebabs,"Biryani,NorthIndian,Mughlai",Gurgaon,"DLF Phase 3, Gurgaon",India,77.103659,28.487816100000003,10.51,3.7,371.0,"DLFPhase3,Gurgaon,India"
629,Fomads,"NorthIndian,Chinese",Gurgaon,"DLF Phase 3, Gurgaon",India,77.0943525,28.4922725,3.94,3.6,26.0,"DLFPhase3,Gurgaon,India"
630,Happy Beings,"NorthIndian,Mughlai,Chinese",Gurgaon,"DLF Phase 3, Gurgaon",India,77.094627,28.490666,6.57,3.5,66.0,"DLFPhase3,Gurgaon,India"
631,InstaDozza,SouthIndian,Gurgaon,"DLF Phase 3, Gurgaon",India,77.0935436,28.4934335,3.28,3.5,28.0,"DLFPhase3,Gurgaon,India"
